{
  "name": "7dostavka",
  "source": "https://dostavka.7telecom.ru",
  "points": [
    {
      "name": "Макеевка, пос. 21 Шахты, ул. 40 лет Октября, д. 4",
      "address": "Макеевка, пос. 21 Шахты, ул. 40 лет Октября, д. 4",
      "link": "https://ozon.ru/point/1401681",
      "operationTime": "неизвестно",
      "coordinates": [
        38.068455000000014,
        48.106988000010546
      ]
    },
    {
      "name": "Донецк, ул. Жарикова, 7",
      "address": "Донецк, ул. Жарикова, 7",
      "link": "https://ozon.ru/point/1401684",
      "operationTime": "неизвестно",
      "coordinates": [
        37.69446799999996,
        47.94244400001102
      ]
    },
    {
      "name": "Донецк, ул. Замоскворечная, 5",
      "address": "Донецк, ул. Замоскворечная, 5",
      "link": "https://ozon.ru/point/1401671",
      "operationTime": "неизвестно",
      "coordinates": [
        37.69446799999996,
        47.94244400001102
      ]
    },
    {
      "name": "Донецк, ул. Радченко 2а",
      "address": "Донецк, ул. Радченко 2а",
      "link": "https://ozon.ru/point/1401674",
      "operationTime": "неизвестно",
      "coordinates": [
        37.69446799999996,
        47.94244400001102
      ]
    },
    {
      "name": "Мариуполь, пр-кт Строителей 70а",
      "address": "Мариуполь, пр-кт Строителей 70а",
      "link": "https://ozon.ru/point/1401670",
      "operationTime": "неизвестно",
      "coordinates": [
        37.69446799999996,
        47.94244400001102
      ]
    },
    {
      "name": "Мариуполь, ул. Киевская, 31",
      "address": "Мариуполь, ул. Киевская, 31",
      "link": "https://ozon.ru/point/1401676",
      "operationTime": "неизвестно",
      "coordinates": [
        37.69446799999996,
        47.94244400001102
      ]
    },
    {
      "name": "Мариуполь, ул. Урицкого, 75",
      "address": "Мариуполь, ул. Урицкого, 75",
      "link": "https://ozon.ru/point/1401675",
      "operationTime": "неизвестно",
      "coordinates": [
        37.69446799999996,
        47.94244400001102
      ]
    },
    {
      "name": "Мариуполь, Ул.Таганрогская, 175а",
      "address": "Мариуполь, Ул.Таганрогская, 175а",
      "link": "https://ozon.ru/point/1401669",
      "operationTime": "неизвестно",
      "coordinates": [
        37.69446799999996,
        47.94244400001102
      ]
    },
    {
      "name": "пгт Горное, Шевченко, 10",
      "address": "пгт Горное, Шевченко, 10",
      "link": "https://ozon.ru/point/1401677",
      "operationTime": "неизвестно",
      "coordinates": [
        37.69446799999996,
        47.94244400001102
      ]
    },
    {
      "name": "пгт Мангуш, ул. Котанова 95",
      "address": "пгт Мангуш, ул. Котанова 95",
      "link": "https://ozon.ru/point/1401673",
      "operationTime": "неизвестно",
      "coordinates": [
        37.69446799999996,
        47.94244400001102
      ]
    },
    {
      "name": "пгт Нижняя Крынка, ул, Центральная 28",
      "address": "пгт Нижняя Крынка, ул, Центральная 28",
      "link": "https://ozon.ru/point/1401685",
      "operationTime": "неизвестно",
      "coordinates": [
        37.69446799999996,
        47.94244400001102
      ]
    },
    {
      "name": "Горное, ул. Фадеева, 1/3",
      "address": "Горное, ул. Фадеева, 1/3",
      "link": "https://ozon.ru/point/1401678",
      "operationTime": "неизвестно",
      "coordinates": [
        37.69446799999996,
        47.94244400001102
      ]
    },
    {
      "name": "Стыла , ул.Ленина 31",
      "address": "Стыла , ул.Ленина 31",
      "link": "https://ozon.ru/point/1401672",
      "operationTime": "неизвестно",
      "coordinates": [
        37.69446799999996,
        47.94244400001102
      ]
    },
    {
      "name": "Торез, микрорайон 2, д. 22 корпус 2",
      "address": "Торез, микрорайон 2, д. 22 корпус 2",
      "link": "https://ozon.ru/point/1401682",
      "operationTime": "неизвестно",
      "coordinates": [
        38.63078699999996,
        48.040886000010715
      ]
    },
    {
      "name": "Кировск, Квартал.50 лет СССР, 9",
      "address": "Кировск, Квартал.50 лет СССР, 9",
      "link": "https://ozon.ru/point/1401658",
      "operationTime": "неизвестно",
      "coordinates": [
        38.641184999999986,
        48.63671900000901
      ]
    },
    {
      "name": "Луганск квартал Заречный д. 1 Г",
      "address": "Луганск квартал Заречный д. 1 Г",
      "link": "https://ozon.ru/point/1401680",
      "operationTime": "неизвестно",
      "coordinates": [
        39.26996900000003,
        48.52765700000933
      ]
    },
    {
      "name": "Луганск, кв. Якира д.7",
      "address": "Луганск, кв. Якира д.7",
      "link": "https://ozon.ru/point/1401679",
      "operationTime": "неизвестно",
      "coordinates": [
        39.381952999999996,
        48.55615200000923
      ]
    },
    {
      "name": "Луганск, ул. Ватутина д.75, пом. 39",
      "address": "Луганск, ул. Ватутина д.75, пом. 39",
      "link": "https://ozon.ru/point/1401683",
      "operationTime": "неизвестно",
      "coordinates": [
        39.37018499999999,
        48.569950000009186
      ]
    },
    {
      "name": "Великая Белозёрка, ул. Центральная 92а",
      "address": "Великая Белозёрка, ул. Центральная 92а",
      "link": "https://ozon.ru/point/1395662",
      "operationTime": "неизвестно",
      "coordinates": [
        34.68918599999999,
        47.27782200001295
      ]
    },
    {
      "name": "пгт Мангуш, Котанова 101а",
      "address": "пгт Мангуш, Котанова 101а",
      "link": "https://ozon.ru/point/1395300",
      "operationTime": "неизвестно",
      "coordinates": [
        37.31187899999997,
        47.052597000013634
      ]
    },
    {
      "name": "Мариуполь, ул. Куприна, 10",
      "address": "Мариуполь, ул. Куприна, 10",
      "link": "https://ozon.ru/point/1395299",
      "operationTime": "неизвестно",
      "coordinates": [
        37.506918,
        47.10651700001344
      ]
    },
    {
      "name": "Макеевка, мкрн Зеленый 16",
      "address": "Макеевка, мкрн Зеленый 16",
      "link": "https://ozon.ru/point/1395509",
      "operationTime": "неизвестно",
      "coordinates": [
        37.506918,
        47.10651700001344
      ]
    },
    {
      "name": "Донецк, ул. Кесарева 57",
      "address": "Донецк, ул. Кесарева 57",
      "link": "https://ozon.ru/point/1395241",
      "operationTime": "неизвестно",
      "coordinates": [
        37.55785000000003,
        47.95989000001095
      ]
    },
    {
      "name": "Донецк, Большая магистральная, 18",
      "address": "Донецк, Большая магистральная, 18",
      "link": "https://ozon.ru/point/1395237",
      "operationTime": "неизвестно",
      "coordinates": [
        37.930590000000024,
        47.972626000010926
      ]
    },
    {
      "name": "Луганск, Годуванцева, 67/1А",
      "address": "Луганск, Годуванцева, 67/1А",
      "link": "https://ozon.ru/point/1390834",
      "operationTime": "неизвестно",
      "coordinates": [
        39.34386499999999,
        48.5699140000092
      ]
    },
    {
      "name": "Мелитополь, проспект Богдана Хмельницкого, 71",
      "address": "Мелитополь, проспект Богдана Хмельницкого, 71",
      "link": "https://ozon.ru/point/1289265",
      "operationTime": "неизвестно",
      "coordinates": [
        35.364337000000006,
        46.832052000014244
      ]
    },
    {
      "name": "Горловка, Физкультурная, 2а",
      "address": "Горловка, Физкультурная, 2а",
      "link": "https://ozon.ru/point/1390845",
      "operationTime": "неизвестно",
      "coordinates": [
        38.05364200000002,
        48.30757200000995
      ]
    },
    {
      "name": "пгт Чаплынка, ул. Кудри, 116",
      "address": "пгт Чаплынка, ул. Кудри, 116",
      "link": "https://ozon.ru/point/1390845",
      "operationTime": "неизвестно",
      "coordinates": [
        33.546949000000005,
        46.36355000001561
      ]
    },
    {
      "name": "пгт. Марковка ул. Павлюченко 5",
      "address": "пгт. Марковка ул. Павлюченко 5",
      "link": "https://ozon.ru/point/1390829",
      "operationTime": "неизвестно",
      "coordinates": [
        39.57105800000001,
        49.5294360000065
      ]
    },
    {
      "name": "Новопсковский район пгт Белолуцк ул. Чернышовой 38",
      "address": "Новопсковский район пгт Белолуцк ул. Чернышовой 38",
      "link": "https://ozon.ru/point/1390835",
      "operationTime": "неизвестно",
      "coordinates": [
        39.02826000000002,
        49.69916200000605
      ]
    },
    {
      "name": "Садовое, улица Октябрьская, дом 5/1",
      "address": "Садовое, улица Октябрьская, дом 5/1",
      "link": "https://ozon.ru/point/1390836",
      "operationTime": "неизвестно",
      "coordinates": [
        38.39752600000002,
        48.02908500001076
      ]
    },
    {
      "name": "Ждановка, 1-й квартал, 3",
      "address": "Ждановка, 1-й квартал, 3",
      "link": "https://ozon.ru/point/1390830",
      "operationTime": "неизвестно",
      "coordinates": [
        38.25132500000004,
        48.15824000001038
      ]
    },
    {
      "name": "Мариуполь, ул. Олимпийская, 159",
      "address": "Мариуполь, ул. Олимпийская, 159",
      "link": "https://ozon.ru/point/1390839",
      "operationTime": "неизвестно",
      "coordinates": [
        37.68072399999999,
        47.120659000013404
      ]
    },
    {
      "name": "Мариуполь, пр-кт. Лунина, 11В",
      "address": "Мариуполь, пр-кт. Лунина, 11В",
      "link": "https://ozon.ru/point/1390832",
      "operationTime": "неизвестно",
      "coordinates": [
        37.51289200000001,
        47.06923800001355
      ]
    },
    {
      "name": "Мариуполь, Киевская, 60",
      "address": "Мариуполь, Киевская, 60",
      "link": "https://ozon.ru/point/1390846",
      "operationTime": "неизвестно",
      "coordinates": [
        37.68333799999998,
        47.121045000013375
      ]
    },
    {
      "name": "Макеевка, Червоногвардейский р-н, Уборевича, 9",
      "address": "Макеевка, Червоногвардейский р-н, Уборевича, 9",
      "link": "https://ozon.ru/point/1390838",
      "operationTime": "неизвестно",
      "coordinates": [
        37.85495199999999,
        48.05840000001069
      ]
    },
    {
      "name": "Макеевка, ул. Кронштадская, 75",
      "address": "Макеевка, ул. Кронштадская, 75",
      "link": "https://ozon.ru/point/1390847",
      "operationTime": "неизвестно",
      "coordinates": [
        37.861599999999996,
        48.03683000001074
      ]
    },
    {
      "name": "Енакиево, пр-кт Металлургов, 63",
      "address": "Енакиево, пр-кт Металлургов, 63",
      "link": "https://ozon.ru/point/1390837",
      "operationTime": "неизвестно",
      "coordinates": [
        38.19487499999999,
        48.21727000001019
      ]
    },
    {
      "name": "Енакиево, пр-кт Берегового, 27",
      "address": "Енакиево, пр-кт Берегового, 27",
      "link": "https://ozon.ru/point/1390841",
      "operationTime": "неизвестно",
      "coordinates": [
        38.18227099999997,
        48.23402300001017
      ]
    },
    {
      "name": "Донецк, ул.Полоцкая (возле дома №4)",
      "address": "Донецк, ул.Полоцкая (возле дома №4)",
      "link": "https://ozon.ru/point/1390840",
      "operationTime": "неизвестно",
      "coordinates": [
        37.900095,
        47.99296600001084
      ]
    },
    {
      "name": "Донецк, ул. Дагестанская, 2",
      "address": "Донецк, ул. Дагестанская, 2",
      "link": "https://ozon.ru/point/1390833",
      "operationTime": "неизвестно",
      "coordinates": [
        37.61851600000001,
        47.99700900001086
      ]
    },
    {
      "name": "Донецк, пр-кт Ильича, 52",
      "address": "Донецк, пр-кт Ильича, 52",
      "link": "https://ozon.ru/point/1390828",
      "operationTime": "неизвестно",
      "coordinates": [
        37.841406,
        48.002755000010836
      ]
    },
    {
      "name": "Алчевск, ул. Гмыри 59, помещение 145",
      "address": "Алчевск, ул. Гмыри 59, помещение 145",
      "link": "https://ozon.ru/point/1390831",
      "operationTime": "неизвестно",
      "coordinates": [
        38.834116000000016,
        48.46218900000952
      ]
    },
    {
      "name": "Макеевка, ул. Пугачева, 7",
      "address": "Макеевка, ул. Пугачева, 7",
      "link": "https://ozon.ru/point/1390844",
      "operationTime": "неизвестно",
      "coordinates": [
        37.859336,
        48.0458360000107
      ]
    },
    {
      "name": "Луганск, кв. Мирный, 2Т",
      "address": "Луганск, кв. Мирный, 2Т",
      "link": "https://ozon.ru/point/1296266",
      "operationTime": "неизвестно",
      "coordinates": [
        39.26904399999999,
        48.52460200000934
      ]
    },
    {
      "name": "пгт Петровка ул Петровского 74",
      "address": "пгт Петровка ул Петровского 74",
      "link": "https://ozon.ru/point/1296255",
      "operationTime": "неизвестно",
      "coordinates": [
        39.262201999999995,
        48.79680300000855
      ]
    },
    {
      "name": "Мелитополь, бульвар 30 лет Победы, 31",
      "address": "Мелитополь, бульвар 30 лет Победы, 31",
      "link": "https://ozon.ru/point/1296256",
      "operationTime": "неизвестно",
      "coordinates": [
        35.372873000000006,
        46.870891000014154
      ]
    },
    {
      "name": "Бердянск, Волонтёров, 51",
      "address": "Бердянск, Волонтёров, 51",
      "link": "https://ozon.ru/point/1296254",
      "operationTime": "неизвестно",
      "coordinates": [
        36.78425899999997,
        46.773359000014416
      ]
    },
    {
      "name": "Пролетарский р-н, пгт Моспино, ул. Стаханова, 7",
      "address": "Пролетарский р-н, пгт Моспино, ул. Стаханова, 7",
      "link": "https://ozon.ru/point/1296253",
      "operationTime": "неизвестно",
      "coordinates": [
        38.07653099999996,
        47.872176000011194
      ]
    },
    {
      "name": "пгт Андреевка, ул. Ленина, 26Б",
      "address": "пгт Андреевка, ул. Ленина, 26Б",
      "link": "https://ozon.ru/point/1296252",
      "operationTime": "неизвестно",
      "coordinates": [
        37.79205,
        47.85052600001127
      ]
    },
    {
      "name": "Мариуполь, Ильича, 142",
      "address": "Мариуполь, Ильича, 142",
      "link": "https://ozon.ru/point/1296251",
      "operationTime": "неизвестно",
      "coordinates": [
        37.56782399999998,
        47.13959000001335
      ]
    },
    {
      "name": "Макеевка, квартал Григорьевка, ул. Уборевича",
      "address": "Макеевка, квартал Григорьевка, ул. Уборевича",
      "link": "https://ozon.ru/point/1296247",
      "operationTime": "неизвестно",
      "coordinates": [
        37.85332200000001,
        48.057868000010664
      ]
    },
    {
      "name": "Донецк, ул. Рубена Ибаррури, 84а",
      "address": "Донецк, ул. Рубена Ибаррури, 84а",
      "link": "https://ozon.ru/point/1296246",
      "operationTime": "неизвестно",
      "coordinates": [
        37.64849200000002,
        47.931186000011024
      ]
    },
    {
      "name": "Кальчик, ул. 1 Мая, д 28",
      "address": "Кальчик, ул. 1 Мая, д 28",
      "link": "https://ozon.ru/point/1296241",
      "operationTime": "неизвестно",
      "coordinates": [
        37.60136699999999,
        47.305519000012865
      ]
    },
    {
      "name": "Мариуполь, п. Сартана , ул. Челюскинцев 50",
      "address": "Мариуполь, п. Сартана , ул. Челюскинцев 50",
      "link": "https://ozon.ru/point/1296236",
      "operationTime": "неизвестно",
      "coordinates": [
        37.691808999999985,
        47.17001400001325
      ]
    },
    {
      "name": "Макеевка, Ленина, 131",
      "address": "Макеевка, Ленина, 131",
      "link": "https://ozon.ru/point/1286996",
      "operationTime": "неизвестно",
      "coordinates": [
        37.96328,
        48.06634200001062
      ]
    },
    {
      "name": "с. Константиновка, ул. Соборная, 114/1",
      "address": "с. Константиновка, ул. Соборная, 114/1",
      "link": "https://ozon.ru/point/1253671",
      "operationTime": "неизвестно",
      "coordinates": [
        35.42403300000004,
        46.82003400001426
      ]
    },
    {
      "name": " с. Вознесенка, ул. Мира 203/1",
      "address": " с. Вознесенка, ул. Мира 203/1",
      "link": "https://ozon.ru/point/1254094",
      "operationTime": "неизвестно",
      "coordinates": [
        35.45355300000001,
        46.864051000014165
      ]
    },
    {
      "name": " г. Мелитополь, улица Екатерины Великой, 309",
      "address": " г. Мелитополь, улица Екатерины Великой, 309",
      "link": "https://ozon.ru/point/1254098",
      "operationTime": "неизвестно",
      "coordinates": [
        35.33264799999998,
        46.859151000014194
      ]
    },
    {
      "name": "г. Донецк, ул. Независимости, 29 В",
      "address": "г. Донецк, ул. Независимости, 29 В",
      "link": "https://ozon.ru/point/1262340",
      "operationTime": "неизвестно",
      "coordinates": [
        37.91301900000003,
        47.99292100001084
      ]
    },
    {
      "name": "г. Донецк, ул. Минская, 2",
      "address": "г. Донецк, ул. Минская, 2",
      "link": "https://ozon.ru/point/1244310",
      "operationTime": "неизвестно",
      "coordinates": [
        37.87339499999998,
        47.979135000010906
      ]
    },
    {
      "name": "Донецк, пр. Партизанский, 75 Г",
      "address": "Донецк, пр. Партизанский, 75 Г",
      "link": "https://ozon.ru/point/1224264",
      "operationTime": "неизвестно",
      "coordinates": [
        37.77727500000002,
        48.05936900001065
      ]
    },
    {
      "name": "Амвросиевка, ул. Мичурина, 34а",
      "address": "Амвросиевка, ул. Мичурина, 34а",
      "link": "https://ozon.ru/point/1294075",
      "operationTime": "неизвестно",
      "coordinates": [
        38.468124000000046,
        47.78625400001147
      ]
    },
    {
      "name": "Донецк, пр-кт 25 летия РККА,6",
      "address": "Донецк, пр-кт 25 летия РККА,6",
      "link": "https://ozon.ru/point/1294077",
      "operationTime": "неизвестно",
      "coordinates": [
        37.80717999999999,
        47.99609900001084
      ]
    },
    {
      "name": "Донецк, пр-кт Ленинский, 12В",
      "address": "Донецк, пр-кт Ленинский, 12В",
      "link": "https://ozon.ru/point/1294076",
      "operationTime": "неизвестно",
      "coordinates": [
        37.78550299999999,
        47.985305000010875
      ]
    },
    {
      "name": "Донецк, ул. Тополевая, 88",
      "address": "Донецк, ул. Тополевая, 88",
      "link": "https://ozon.ru/point/1294072",
      "operationTime": "неизвестно",
      "coordinates": [
        37.85447000000003,
        47.96628700001093
      ]
    },
    {
      "name": "Иловайск, ул. Ярославского, 7",
      "address": "Иловайск, ул. Ярославского, 7",
      "link": "https://ozon.ru/point/1294079",
      "operationTime": "неизвестно",
      "coordinates": [
        38.209435999999975,
        47.91426700001109
      ]
    },
    {
      "name": "Торез, пр-кт Гагарина, 119",
      "address": "Торез, пр-кт Гагарина, 119",
      "link": "https://ozon.ru/point/1294073",
      "operationTime": "неизвестно",
      "coordinates": [
        38.59863099999998,
        48.03092500001077
      ]
    },
    {
      "name": "Шахтерск, ул. Крупской, 31",
      "address": "Шахтерск, ул. Крупской, 31",
      "link": "https://ozon.ru/point/1294071",
      "operationTime": "неизвестно",
      "coordinates": [
        38.48224599999999,
        48.03144300001076
      ]
    },
    {
      "name": "Луганск, кв. Комарова д.27 б",
      "address": "Луганск, кв. Комарова д.27 б",
      "link": "https://ozon.ru/point/1294074",
      "operationTime": "неизвестно",
      "coordinates": [
        39.398733999999976,
        48.56265800000924
      ]
    },
    {
      "name": "Золотое, ул. Пионерская, 6, пом 23",
      "address": "Золотое, ул. Пионерская, 6, пом 23",
      "link": "https://ozon.ru/point/1294080",
      "operationTime": "неизвестно",
      "coordinates": [
        38.49705000000001,
        48.718499000008784
      ]
    },
    {
      "name": "Чермалык, ул. Ленина 5А",
      "address": "Чермалык, ул. Ленина 5А",
      "link": "https://ozon.ru/point/1294078",
      "operationTime": "неизвестно",
      "coordinates": [
        37.80129599999999,
        47.31407800001287
      ]
    },
    {
      "name": "Чулаковка, ул. Гагарина, 6В",
      "address": "Чулаковка, ул. Гагарина, 6В",
      "link": "https://ozon.ru/point/1292753",
      "operationTime": "неизвестно",
      "coordinates": [
        32.347875,
        46.36046500001565
      ]
    },
    {
      "name": "Артемовск ул, Стаханова 2а",
      "address": "Артемовск ул, Стаханова 2а",
      "link": "https://ozon.ru/point/1292754",
      "operationTime": "неизвестно",
      "coordinates": [
        38.73422099999999,
        48.44191800000954
      ]
    },
    {
      "name": "Муниципальный округ Бердянский, с. Дмитровка, пр. Труда, д.3",
      "address": "Муниципальный округ Бердянский, с. Дмитровка, пр. Труда, д.3",
      "link": "https://ozon.ru/point/1292752",
      "operationTime": "неизвестно",
      "coordinates": [
        36.571655,
        46.83916000001424
      ]
    },
    {
      "name": "Мелитополь, ул. Дарьи Дугиной, 43",
      "address": "Мелитополь, ул. Дарьи Дугиной, 43",
      "link": "https://ozon.ru/point/1292751",
      "operationTime": "неизвестно",
      "coordinates": [
        35.37509899999997,
        46.843986000014226
      ]
    },
    {
      "name": "Балки, улица Мира 128",
      "address": "Балки, улица Мира 128",
      "link": "https://ozon.ru/point/1292756",
      "operationTime": "неизвестно",
      "coordinates": [
        37.801295999999994,
        47.31407800001289
      ]
    },
    {
      "name": "Макеевка, Седова, 147/15",
      "address": "Макеевка, Седова, 147/15",
      "link": "https://ozon.ru/point/1292748",
      "operationTime": "неизвестно",
      "coordinates": [
        37.96784299999998,
        48.06697300001064
      ]
    },
    {
      "name": "Макеевка, мкрн Зеленый 63А",
      "address": "Макеевка, мкрн Зеленый 63А",
      "link": "https://ozon.ru/point/1292749",
      "operationTime": "неизвестно",
      "coordinates": [
        38.02033199999997,
        48.05298500001066
      ]
    },
    {
      "name": "Донецк, ул. Королёвой, 14",
      "address": "Донецк, ул. Королёвой, 14",
      "link": "https://ozon.ru/point/1292755",
      "operationTime": "неизвестно",
      "coordinates": [
        37.73311399999999,
        47.973772000010904
      ]
    },
    {
      "name": "Донецк, пр-кт Ильича, 76",
      "address": "Донецк, пр-кт Ильича, 76",
      "link": "https://ozon.ru/point/1292745",
      "operationTime": "неизвестно",
      "coordinates": [
        37.854188999999984,
        48.00304400001081
      ]
    },
    {
      "name": "Алчевск ул. Ленина 69",
      "address": "Алчевск ул. Ленина 69",
      "link": "https://ozon.ru/point/1292744",
      "operationTime": "неизвестно",
      "coordinates": [
        38.83582299999996,
        48.4661680000095
      ]
    },
    {
      "name": "Мариуполь, ул. Карла Либкнехта, 126",
      "address": "Мариуполь, ул. Карла Либкнехта, 126",
      "link": "https://ozon.ru/point/1292742",
      "operationTime": "неизвестно",
      "coordinates": [
        37.53195599999998,
        47.10692600001347
      ]
    },
    {
      "name": "Новотроицкое, ул. Кошевого, 43",
      "address": "Новотроицкое, ул. Кошевого, 43",
      "link": "https://ozon.ru/point/1284374",
      "operationTime": "неизвестно",
      "coordinates": [
        37.54907600000001,
        47.71235300001168
      ]
    },
    {
      "name": "Днепрорудное, Центральная, 45",
      "address": "Днепрорудное, Центральная, 45",
      "link": "https://ozon.ru/point/1291660",
      "operationTime": "неизвестно",
      "coordinates": [
        35.000573,
        47.39224900001263
      ]
    },
    {
      "name": "Луганск, ул.Веселогоровская, д.145, пом.24",
      "address": "Луганск, ул.Веселогоровская, д.145, пом.24",
      "link": "https://ozon.ru/point/1291657",
      "operationTime": "неизвестно",
      "coordinates": [
        39.29777399999998,
        48.6047660000091
      ]
    },
    {
      "name": "Петровка,Приморский район,ул.Желтая 43а",
      "address": "Петровка,Приморский район,ул.Желтая 43а",
      "link": "https://ozon.ru/point/1291649",
      "operationTime": "неизвестно",
      "coordinates": [
        36.063666999999995,
        46.900226000014065
      ]
    },
    {
      "name": "Стожковское, ул. Артема, 46",
      "address": "Стожковское, ул. Артема, 46",
      "link": "https://ozon.ru/point/1291652",
      "operationTime": "неизвестно",
      "coordinates": [
        38.46171899999999,
        48.115981000010514
      ]
    },
    {
      "name": "Северное, ул. Минская, 31А",
      "address": "Северное, ул. Минская, 31А",
      "link": "https://ozon.ru/point/1291645",
      "operationTime": "неизвестно",
      "coordinates": [
        38.693686999999976,
        48.07424100001066
      ]
    },
    {
      "name": "Мариуполь, бульвар 50 лет Октября, 9/28",
      "address": "Мариуполь, бульвар 50 лет Октября, 9/28",
      "link": "https://ozon.ru/point/1291643",
      "operationTime": "неизвестно",
      "coordinates": [
        37.637129,
        47.10266500001346
      ]
    },
    {
      "name": "Мариуполь, ул. 25-й квартал, 2",
      "address": "Мариуполь, ул. 25-й квартал, 2",
      "link": "https://ozon.ru/point/1291653",
      "operationTime": "неизвестно",
      "coordinates": [
        37.55881399999997,
        47.13196400001339
      ]
    },
    {
      "name": "Мариуполь, пр-кт Победы, 59",
      "address": "Мариуполь, пр-кт Победы, 59",
      "link": "https://ozon.ru/point/1291651",
      "operationTime": "неизвестно",
      "coordinates": [
        37.64306699999999,
        47.10665200001343
      ]
    },
    {
      "name": "Макеевка, мкрн Комсомольский, 1",
      "address": "Макеевка, мкрн Комсомольский, 1",
      "link": "https://ozon.ru/point/1291655",
      "operationTime": "неизвестно",
      "coordinates": [
        37.96074700000001,
        48.078606000010616
      ]
    },
    {
      "name": "Макеевка, квартал 64, д. 4",
      "address": "Макеевка, квартал 64, д. 4",
      "link": "https://ozon.ru/point/1291648",
      "operationTime": "неизвестно",
      "coordinates": [
        38.044900999999996,
        48.062013000010694
      ]
    },
    {
      "name": "Донецк, ул. Зверькова,21А",
      "address": "Донецк, ул. Зверькова,21А",
      "link": "https://ozon.ru/point/1291644",
      "operationTime": "неизвестно",
      "coordinates": [
        37.91655899999999,
        47.95185900001101
      ]
    },
    {
      "name": "Донецк, ул. Бутурлиновская, 38А",
      "address": "Донецк, ул. Бутурлиновская, 38А",
      "link": "https://ozon.ru/point/1291656",
      "operationTime": "неизвестно",
      "coordinates": [
        37.74049800000003,
        48.005130000010816
      ]
    },
    {
      "name": "Донецк, ул. Ткаченко, 159",
      "address": "Донецк, ул. Ткаченко, 159",
      "link": "https://ozon.ru/point/1289111",
      "operationTime": "неизвестно",
      "coordinates": [
        37.805949000000005,
        47.970714000010936
      ]
    },
    {
      "name": "Макеевка, ул. Академика Туполева, 1А",
      "address": "Макеевка, ул. Академика Туполева, 1А",
      "link": "https://ozon.ru/point/1289109",
      "operationTime": "неизвестно",
      "coordinates": [
        37.89579199999999,
        48.05983500001066
      ]
    },
    {
      "name": "Моспино, Пролетарский район ул. Короленко 10а",
      "address": "Моспино, Пролетарский район ул. Короленко 10а",
      "link": "https://ozon.ru/point/1289105",
      "operationTime": "неизвестно",
      "coordinates": [
        38.05579799999998,
        47.882329000011204
      ]
    },
    {
      "name": "Торез, Энгельса 103",
      "address": "Торез, Энгельса 103",
      "link": "https://ozon.ru/point/1289102",
      "operationTime": "неизвестно",
      "coordinates": [
        38.62245500000003,
        48.030407000010726
      ]
    },
    {
      "name": "Урзуф, ул.Малиновского 24",
      "address": "Урзуф, ул.Малиновского 24",
      "link": "https://ozon.ru/point/1289098",
      "operationTime": "неизвестно",
      "coordinates": [
        37.11279099999998,
        46.908697000014044
      ]
    },
    {
      "name": "Мелитополь, проспект Б. Хмельницкого, 66",
      "address": "Мелитополь, проспект Б. Хмельницкого, 66",
      "link": "https://ozon.ru/point/1289274",
      "operationTime": "неизвестно",
      "coordinates": [
        35.35509299999998,
        46.82700300001429
      ]
    },
    {
      "name": "Алчевск, ул. Кирова, 15",
      "address": "Алчевск, ул. Кирова, 15",
      "link": "https://ozon.ru/point/1289094",
      "operationTime": "неизвестно",
      "coordinates": [
        38.79107799999998,
        48.46937600000948
      ]
    },
    {
      "name": "Белокуракино, ул.Горбунова, 5а",
      "address": "Белокуракино, ул.Горбунова, 5а",
      "link": "https://ozon.ru/point/1289091",
      "operationTime": "неизвестно",
      "coordinates": [
        38.722473,
        49.53155300000651
      ]
    },
    {
      "name": "Николаевка ул. Октябрьская 11",
      "address": "Николаевка ул. Октябрьская 11",
      "link": "https://ozon.ru/point/1289087",
      "operationTime": "неизвестно",
      "coordinates": [
        39.522401999999985,
        48.588396000009155
      ]
    },
    {
      "name": "Токмак, ул.Ковальская, 52",
      "address": "Токмак, ул.Ковальская, 52",
      "link": "https://ozon.ru/point/1288734",
      "operationTime": "неизвестно",
      "coordinates": [
        35.69292300000001,
        47.237792000013044
      ]
    },
    {
      "name": "Донецк, ул. Куприна, 21",
      "address": "Донецк, ул. Куприна, 21",
      "link": "https://ozon.ru/point/1284373",
      "operationTime": "неизвестно",
      "coordinates": [
        37.79886999999997,
        47.958569000010954
      ]
    },
    {
      "name": "Токмак, ул. Шевченко, 50",
      "address": "Токмак, ул. Шевченко, 50",
      "link": "https://ozon.ru/point/1284378",
      "operationTime": "неизвестно",
      "coordinates": [
        35.713333000000006,
        47.26214200001301
      ]
    },
    {
      "name": "г. Волноваха, ул. Советская, 36",
      "address": "г. Волноваха, ул. Советская, 36",
      "link": "https://ozon.ru/point/1262320",
      "operationTime": "неизвестно",
      "coordinates": [
        37.49740499999998,
        47.602341000012004
      ]
    },
    {
      "name": "Луганск, кв. 50 лет Обороны Луганска, д.14 М",
      "address": "Луганск, кв. 50 лет Обороны Луганска, д.14 М",
      "link": "https://ozon.ru/point/1286968",
      "operationTime": "неизвестно",
      "coordinates": [
        39.35734000000001,
        48.51222500000936
      ]
    },
    {
      "name": "Донецк, ул. Кирова, 17",
      "address": "Донецк, ул. Кирова, 17",
      "link": "https://ozon.ru/point/1286928",
      "operationTime": "неизвестно",
      "coordinates": [
        37.785054,
        47.97851300001093
      ]
    },
    {
      "name": "Донецк, ул. Щетинина, 21",
      "address": "Донецк, ул. Щетинина, 21",
      "link": "https://ozon.ru/point/1287005",
      "operationTime": "неизвестно",
      "coordinates": [
        37.92028699999998,
        47.979871000010874
      ]
    },
    {
      "name": "Донецк, ул. Якуба Коласа, 1Б",
      "address": "Донецк, ул. Якуба Коласа, 1Б",
      "link": "https://ozon.ru/point/1286975",
      "operationTime": "неизвестно",
      "coordinates": [
        37.68614999999999,
        47.98434000001089
      ]
    },
    {
      "name": "Макеевка , пос. Красная звезда, ул.Высотная 3",
      "address": "Макеевка , пос. Красная звезда, ул.Высотная 3",
      "link": "https://ozon.ru/point/1286966",
      "operationTime": "неизвестно",
      "coordinates": [
        38.03491200000001,
        48.033908000010726
      ]
    },
    {
      "name": "Нижняя Крынка, ул. Смирнова, 9",
      "address": "Нижняя Крынка, ул. Смирнова, 9",
      "link": "https://ozon.ru/point/1286955%22",
      "operationTime": "неизвестно",
      "coordinates": [
        37.837373,
        48.053646000010666
      ]
    },
    {
      "name": "Новоамвросиевское, ул. Ленина, 4/1",
      "address": "Новоамвросиевское, ул. Ленина, 4/1",
      "link": "https://ozon.ru/point/1286935",
      "operationTime": "неизвестно",
      "coordinates": [
        38.49858600000001,
        47.83463400001132
      ]
    },
    {
      "name": "Седово, ул. Калинина, 6",
      "address": "Седово, ул. Калинина, 6",
      "link": "https://ozon.ru/point/1286947",
      "operationTime": "неизвестно",
      "coordinates": [
        38.159849000000015,
        47.069673000013566
      ]
    },
    {
      "name": "Макеевка, ул. Черепановых, 119",
      "address": "Макеевка, ул. Черепановых, 119",
      "link": "https://ozon.ru/point/1286942",
      "operationTime": "неизвестно",
      "coordinates": [
        37.84170199999999,
        48.052004000010704
      ]
    },
    {
      "name": "Мелитополь, ул. Екатерины Великой, 141г",
      "address": "Мелитополь, ул. Екатерины Великой, 141г",
      "link": "https://ozon.ru/point/1286960",
      "operationTime": "неизвестно",
      "coordinates": [
        35.36349800000001,
        46.8490780000142
      ]
    },
    {
      "name": "Краснодон, кв. Лютикова 40",
      "address": "Краснодон, кв. Лютикова 40",
      "link": "https://ozon.ru/point/1286953",
      "operationTime": "неизвестно",
      "coordinates": [
        39.72095100000001,
        48.31373200000993
      ]
    },
    {
      "name": "Луганск, пос. Юбилейный, кв. Запорожченко д.3 пом 49",
      "address": "Луганск, пос. Юбилейный, кв. Запорожченко д.3 пом 49",
      "link": "https://ozon.ru/point/1286949",
      "operationTime": "неизвестно",
      "coordinates": [
        39.19044199999998,
        48.555997000009256
      ]
    },
    {
      "name": "Луганск, кв. Пролетариата Донбасса д. 12 А",
      "address": "Луганск, кв. Пролетариата Донбасса д. 12 А",
      "link": "https://ozon.ru/point/1287001",
      "operationTime": "неизвестно",
      "coordinates": [
        39.344296000000014,
        48.54009700000929
      ]
    },
    {
      "name": "Луганск, улица Героя России В.Н. Зозулина д. 7 пом. 68",
      "address": "Луганск, улица Героя России В.Н. Зозулина д. 7 пом. 68",
      "link": "https://ozon.ru/point/1286936",
      "operationTime": "неизвестно",
      "coordinates": [
        39.313653999999985,
        48.57416500000916
      ]
    },
    {
      "name": "Луганск, ул. Советская, 51 пом. 2",
      "address": "Луганск, ул. Советская, 51 пом. 2",
      "link": "https://ozon.ru/point/1287006",
      "operationTime": "неизвестно",
      "coordinates": [
        39.29859899999998,
        48.567953000009204
      ]
    },
    {
      "name": "Свердловск, ул. Гагарина, 118/1",
      "address": "Свердловск, ул. Гагарина, 118/1",
      "link": "https://ozon.ru/point/1287004",
      "operationTime": "неизвестно",
      "coordinates": [
        39.695483000000024,
        48.080123000010595
      ]
    },
    {
      "name": "Фащевка ул. Комсомольская, д. 51 помещение 1",
      "address": "Фащевка ул. Комсомольская, д. 51 помещение 1",
      "link": "https://ozon.ru/point/1286964",
      "operationTime": "неизвестно",
      "coordinates": [
        38.609509999999965,
        48.27708900001004
      ]
    },
    {
      "name": "Красная Поляна ул. Первомайская 9",
      "address": "Красная Поляна ул. Первомайская 9",
      "link": "https://ozon.ru/point/1286921",
      "operationTime": "неизвестно",
      "coordinates": [
        39.107213,
        48.24151200001014
      ]
    },
    {
      "name": "Шульгинка ул. Ленина 45",
      "address": "Шульгинка ул. Ленина 45",
      "link": "https://ozon.ru/point/1286984",
      "operationTime": "неизвестно",
      "coordinates": [
        38.92221899999997,
        49.143431000007574
      ]
    },
    {
      "name": "Мариуполь, ул. Дарвина, 1а",
      "address": "Мариуполь, ул. Дарвина, 1а",
      "link": "https://ozon.ru/point/1286993",
      "operationTime": "неизвестно",
      "coordinates": [
        37.502911000000005,
        47.077222000013556
      ]
    },
    {
      "name": "Донецк, ул. Розы Люксембург, 30А",
      "address": "Донецк, ул. Розы Люксембург, 30А",
      "link": "https://ozon.ru/point/1286988",
      "operationTime": "неизвестно",
      "coordinates": [
        37.792879000000006,
        48.00903000001082
      ]
    },
    {
      "name": "Волноваха, Ленина, 13",
      "address": "Волноваха, Ленина, 13",
      "link": "https://ozon.ru/point/1287000",
      "operationTime": "неизвестно",
      "coordinates": [
        37.498447000000034,
        47.59561000001201
      ]
    },
    {
      "name": "Дебальцево, ул. Николая Щербины, 9",
      "address": "Дебальцево, ул. Николая Щербины, 9",
      "link": "https://ozon.ru/point/1284368",
      "operationTime": "неизвестно",
      "coordinates": [
        38.402675999999985,
        48.34138700000988
      ]
    },
    {
      "name": "Донецк, ул Октября 16а",
      "address": "Донецк, ул Октября 16а",
      "link": "https://ozon.ru/point/1284370",
      "operationTime": "неизвестно",
      "coordinates": [
        37.88141199999999,
        47.961968000010934
      ]
    },
    {
      "name": "Макеевка, ул. 50 лет образования СССР, площадь Привокзальная, павильон 4,5",
      "address": "Макеевка, ул. 50 лет образования СССР, площадь Привокзальная, павильон 4,5",
      "link": "https://ozon.ru/point/1284369",
      "operationTime": "неизвестно",
      "coordinates": [
        37.95112700000002,
        48.10025200001054
      ]
    },
    {
      "name": "Макеевка, ул. Московская, 64",
      "address": "Макеевка, ул. Московская, 64",
      "link": "https://ozon.ru/point/1284371",
      "operationTime": "неизвестно",
      "coordinates": [
        37.973557,
        48.043023000010706
      ]
    },
    {
      "name": "Мариуполь, пер. Ярослава Мудрого, 19",
      "address": "Мариуполь, пер. Ярослава Мудрого, 19",
      "link": "https://ozon.ru/point/1284375",
      "operationTime": "неизвестно",
      "coordinates": [
        37.60567899999998,
        47.14866700001334
      ]
    },
    {
      "name": "Краснодон, кв. Шахтёр, 4Б",
      "address": "Краснодон, кв. Шахтёр, 4Б",
      "link": "https://ozon.ru/point/1284372",
      "operationTime": "неизвестно",
      "coordinates": [
        39.724965999999995,
        48.31808200000991
      ]
    },
    {
      "name": "Горское, ул. Центральная, 17",
      "address": "Горское, ул. Центральная, 17",
      "link": "https://ozon.ru/point/1284376",
      "operationTime": "неизвестно",
      "coordinates": [
        38.492918000000024,
        48.73939400000869
      ]
    },
    {
      "name": "Мелитополь, ул. Розы Люксембург, 17/1",
      "address": "Мелитополь, ул. Розы Люксембург, 17/1",
      "link": "https://ozon.ru/point/1284105",
      "operationTime": "неизвестно",
      "coordinates": [
        35.35624100000001,
        46.84001400001423
      ]
    },
    {
      "name": "Бердянск ул.Мичурина,57",
      "address": "Бердянск ул.Мичурина,57",
      "link": "https://ozon.ru/point/1284377",
      "operationTime": "неизвестно",
      "coordinates": [
        36.81313100000001,
        46.752691000014465
      ]
    },
    {
      "name": "Каменка, ул. Центральная 57\n",
      "address": "Каменка, ул. Центральная 57\n",
      "link": "https://ozon.ru/point/1284112",
      "operationTime": "неизвестно",
      "coordinates": [
        36.650796000000014,
        47.360152000012704
      ]
    },
    {
      "name": "Камыш-Заря, ул. Вокзальная, 69\n",
      "address": "Камыш-Заря, ул. Вокзальная, 69\n",
      "link": "https://ozon.ru/point/1284108",
      "operationTime": "неизвестно",
      "coordinates": [
        36.69317000000001,
        47.3271260000128
      ]
    },
    {
      "name": "Антрацит, Петровского 72",
      "address": "Антрацит, Петровского 72",
      "link": "https://ozon.ru/point/1282549",
      "operationTime": "неизвестно",
      "coordinates": [
        39.089938000000004,
        48.12300100001047
      ]
    },
    {
      "name": "Старобешево, ул. Чкалова, 52",
      "address": "Старобешево, ул. Чкалова, 52",
      "link": "https://ozon.ru/point/1282548",
      "operationTime": "неизвестно",
      "coordinates": [
        38.02561399999998,
        47.755381000011546
      ]
    },
    {
      "name": "Торез, микрорайон 30 лет Победы, 35",
      "address": "Торез, микрорайон 30 лет Победы, 35",
      "link": "https://ozon.ru/point/1282542",
      "operationTime": "неизвестно",
      "coordinates": [
        38.612711000000004,
        48.083835000010616
      ]
    },
    {
      "name": "Донецк, Александра Матросова 9",
      "address": "Донецк, Александра Матросова 9",
      "link": "https://ozon.ru/point/1282545",
      "operationTime": "неизвестно",
      "coordinates": [
        37.765696,
        48.01050700001084
      ]
    },
    {
      "name": "Верхний Рогачик, ул. Центральная, 77",
      "address": "Верхний Рогачик, ул. Центральная, 77",
      "link": "https://ozon.ru/point/1281984",
      "operationTime": "неизвестно",
      "coordinates": [
        34.36001199999999,
        47.24147500001305
      ]
    },
    {
      "name": "Великая Лепетиха, ул. Чкалова, 11 ",
      "address": "Великая Лепетиха, ул. Чкалова, 11 ",
      "link": "https://ozon.ru/point/1281972",
      "operationTime": "неизвестно",
      "coordinates": [
        33.931533000000016,
        47.158472000013305
      ]
    },
    {
      "name": "Металлист, ул. Ленина 38",
      "address": "Металлист, ул. Ленина 38",
      "link": "https://ozon.ru/point/1281973",
      "operationTime": "неизвестно",
      "coordinates": [
        39.277658999999964,
        48.62370800000905
      ]
    },
    {
      "name": "Дзержинский, ул. Муравьева, 1",
      "address": "Дзержинский, ул. Муравьева, 1",
      "link": "https://ozon.ru/point/1282009",
      "operationTime": "неизвестно",
      "coordinates": [
        39.433175000000006,
        48.0473600000107
      ]
    },
    {
      "name": "Славяносербск, ул. Гагарина, 69",
      "address": "Славяносербск, ул. Гагарина, 69",
      "link": "https://ozon.ru/point/1281788",
      "operationTime": "неизвестно",
      "coordinates": [
        38.97401900000003,
        48.70490900000878
      ]
    },
    {
      "name": "Свердловск, ул. Зои Космодемьянской , дом 3, помещение 1",
      "address": "Свердловск, ул. Зои Космодемьянской , дом 3, помещение 1",
      "link": "https://ozon.ru/point/1281805",
      "operationTime": "неизвестно",
      "coordinates": [
        39.64500700000001,
        48.07882900001061
      ]
    },
    {
      "name": "Красный Луч, ул. Интернациональная, 26",
      "address": "Красный Луч, ул. Интернациональная, 26",
      "link": "https://ozon.ru/point/1281789",
      "operationTime": "неизвестно",
      "coordinates": [
        38.928933000000015,
        48.13980300001041
      ]
    },
    {
      "name": "Красный Луч, ул. Ильича, 2",
      "address": "Красный Луч, ул. Ильича, 2",
      "link": "https://ozon.ru/point/1282088",
      "operationTime": "неизвестно",
      "coordinates": [
        38.943683,
        48.12104600001047
      ]
    },
    {
      "name": "Красный Луч, 3-й микрорайон, 66а",
      "address": "Красный Луч, 3-й микрорайон, 66а",
      "link": "https://ozon.ru/point/1281989",
      "operationTime": "неизвестно",
      "coordinates": [
        38.933640000000025,
        48.16122700001038
      ]
    },
    {
      "name": "Антрацит , Петровского 27",
      "address": "Антрацит , Петровского 27",
      "link": "https://ozon.ru/point/1281988",
      "operationTime": "неизвестно",
      "coordinates": [
        39.08822200000002,
        48.11517500001049
      ]
    },
    {
      "name": "Андреевка ул.Рудченкова 7",
      "address": "Андреевка ул.Рудченкова 7",
      "link": "https://ozon.ru/point/1281983",
      "operationTime": "неизвестно",
      "coordinates": [
        37.649193,
        47.46049600001243
      ]
    },
    {
      "name": "Донецк, ул. Щетинина, 14",
      "address": "Донецк, ул. Щетинина, 14",
      "link": "https://ozon.ru/point/1281968",
      "operationTime": "неизвестно",
      "coordinates": [
        37.915373,
        47.98084800001092
      ]
    },
    {
      "name": "Донецк, ул. Артема, 98Д",
      "address": "Донецк, ул. Артема, 98Д",
      "link": "https://ozon.ru/point/1282001",
      "operationTime": "неизвестно",
      "coordinates": [
        37.802651999999995,
        48.0130150000108
      ]
    },
    {
      "name": "Горловка, бульвар Димитрова 48",
      "address": "Горловка, бульвар Димитрова 48",
      "link": "https://ozon.ru/point/1282005",
      "operationTime": "неизвестно",
      "coordinates": [
        38.00554700000003,
        48.30940300000993
      ]
    },
    {
      "name": "Амвросиевка, Интернациональная, 9",
      "address": "Амвросиевка, Интернациональная, 9",
      "link": "https://ozon.ru/point/1281980",
      "operationTime": "неизвестно",
      "coordinates": [
        38.49681600000001,
        47.787211000011446
      ]
    },
    {
      "name": "Урзуф, улица Горького 45",
      "address": "Урзуф, улица Горького 45",
      "link": "https://ozon.ru/point/1281990",
      "operationTime": "неизвестно",
      "coordinates": [
        37.099545000000006,
        46.91501300001402
      ]
    },
    {
      "name": "Харцызск, Краснознаменская, 178",
      "address": "Харцызск, Краснознаменская, 178",
      "link": "https://ozon.ru/point/1253673",
      "operationTime": "неизвестно",
      "coordinates": [
        38.144120000000036,
        48.045221000010685
      ]
    },
    {
      "name": "пгт Бирюково , ул. Ленина, 126",
      "address": "пгт Бирюково , ул. Ленина, 126",
      "link": "https://ozon.ru/point/1276892",
      "operationTime": "неизвестно",
      "coordinates": [
        39.744621,
        47.95386900001099
      ]
    },
    {
      "name": "Дзержинский, ул. Муравьева, 1а",
      "address": "Дзержинский, ул. Муравьева, 1а",
      "link": "https://ozon.ru/point/1279916",
      "operationTime": "неизвестно",
      "coordinates": [
        39.427220000000005,
        48.04903400001071
      ]
    },
    {
      "name": "Ясеновский, ул. Ленина, 11",
      "address": "Ясеновский, ул. Ленина, 11",
      "link": "https://ozon.ru/point/1279927",
      "operationTime": "неизвестно",
      "coordinates": [
        39.21740000000001,
        48.16787400001037
      ]
    },
    {
      "name": "Новоайдар, ул. Ленина, 23а",
      "address": "Новоайдар, ул. Ленина, 23а",
      "link": "https://ozon.ru/point/1279942",
      "operationTime": "неизвестно",
      "coordinates": [
        38.992651,
        48.95980000000806
      ]
    },
    {
      "name": "Ровеньки, ул. 8-го марта, 6 \n",
      "address": "Ровеньки, ул. 8-го марта, 6 \n",
      "link": "https://ozon.ru/point/1279908",
      "operationTime": "неизвестно",
      "coordinates": [
        39.373580999999994,
        48.084505000010566
      ]
    },
    {
      "name": "Ровеньки, кв. Шахтерский, 12 \n",
      "address": "Ровеньки, кв. Шахтерский, 12 \n",
      "link": "https://ozon.ru/point/1279722",
      "operationTime": "неизвестно",
      "coordinates": [
        39.403943999999996,
        48.07220700001064
      ]
    },
    {
      "name": "Крепенский, ул. Мира, 14",
      "address": "Крепенский, ул. Мира, 14",
      "link": "https://ozon.ru/point/1279708",
      "operationTime": "неизвестно",
      "coordinates": [
        39.06392300000004,
        48.080587000010624
      ]
    },
    {
      "name": "Ялта, ул. Гагарина, 58а",
      "address": "Ялта, ул. Гагарина, 58а",
      "link": "https://ozon.ru/point/1279999",
      "operationTime": "неизвестно",
      "coordinates": [
        37.272556000000016,
        46.96400100001388
      ]
    },
    {
      "name": "Талаковка, ул. 40 лет Октября, 162",
      "address": "Талаковка, ул. 40 лет Октября, 162",
      "link": "https://ozon.ru/point/1279899",
      "operationTime": "неизвестно",
      "coordinates": [
        37.721893999999985,
        47.18547400001324
      ]
    },
    {
      "name": "Заря, ул. Афинская, 2",
      "address": "Заря, ул. Афинская, 2",
      "link": "https://ozon.ru/point/1279934",
      "operationTime": "неизвестно",
      "coordinates": [
        37.613366,
        47.29725500001286
      ]
    },
    {
      "name": "Мариуполь, ул. Азовстальская, 88",
      "address": "Мариуполь, ул. Азовстальская, 88",
      "link": "https://ozon.ru/point/1279706",
      "operationTime": "неизвестно",
      "coordinates": [
        37.65151999999999,
        47.10155500001347
      ]
    },
    {
      "name": "Макеевка, ул. Донецкая, 80",
      "address": "Макеевка, ул. Донецкая, 80",
      "link": "https://ozon.ru/point/1279686",
      "operationTime": "неизвестно",
      "coordinates": [
        37.96225599999998,
        48.04633600001072
      ]
    },
    {
      "name": "Донецк, ул. Петровского, 79",
      "address": "Донецк, ул. Петровского, 79",
      "link": "https://ozon.ru/point/1279917",
      "operationTime": "неизвестно",
      "coordinates": [
        37.721337,
        47.958002000010985
      ]
    },
    {
      "name": "Донецк, ул. Энгельса, 110в",
      "address": "Донецк, ул. Энгельса, 110в",
      "link": "https://ozon.ru/point/1279693",
      "operationTime": "неизвестно",
      "coordinates": [
        37.72564899999999,
        48.041932000010696
      ]
    },
    {
      "name": "Донецк, ул. Большая Магистральная, 26",
      "address": "Донецк, ул. Большая Магистральная, 26",
      "link": "https://ozon.ru/point/1279905",
      "operationTime": "неизвестно",
      "coordinates": [
        37.92869500000003,
        47.968766000010916
      ]
    },
    {
      "name": "Донецк, пр-кт Партизанский, 1а",
      "address": "Донецк, пр-кт Партизанский, 1а",
      "link": "https://ozon.ru/point/1279545",
      "operationTime": "неизвестно",
      "coordinates": [
        37.795026000000036,
        48.05745400001069
      ]
    },
    {
      "name": "Донецк, пр-т Панфилова, 1а",
      "address": "Донецк, пр-т Панфилова, 1а",
      "link": "https://ozon.ru/point/1279546",
      "operationTime": "неизвестно",
      "coordinates": [
        37.79288799999999,
        48.024797000010764
      ]
    },
    {
      "name": "Донецк, ул. Кирова, 49",
      "address": "Донецк, ул. Кирова, 49",
      "link": "https://ozon.ru/point/1279997",
      "operationTime": "неизвестно",
      "coordinates": [
        37.774319,
        47.972626000010926
      ]
    },
    {
      "name": "Донецк. ул. Коммунаров, 12А",
      "address": "Донецк. ул. Коммунаров, 12А",
      "link": "https://ozon.ru/point/1279690",
      "operationTime": "неизвестно",
      "coordinates": [
        37.72549600000002,
        47.968916000010964
      ]
    },
    {
      "name": "Макеевка Кировский район ул. Кирова 91",
      "address": "Макеевка Кировский район ул. Кирова 91",
      "link": "https://ozon.ru/point/1279710",
      "operationTime": "неизвестно",
      "coordinates": [
        37.940255999999984,
        48.06574000001067
      ]
    },
    {
      "name": "Макеевка, ул. Свободы, 3А",
      "address": "Макеевка, ул. Свободы, 3А",
      "link": "https://ozon.ru/point/1279703",
      "operationTime": "неизвестно",
      "coordinates": [
        37.86649599999997,
        48.0388780000107
      ]
    },
    {
      "name": "Мариуполь, ул. Зелинского, 1",
      "address": "Мариуполь, ул. Зелинского, 1",
      "link": "https://ozon.ru/point/1279938",
      "operationTime": "неизвестно",
      "coordinates": [
        37.51379000000002,
        47.086390000013495
      ]
    },
    {
      "name": "Мангуш, ул.Ленина, 52а",
      "address": "Мангуш, ул.Ленина, 52а",
      "link": "https://ozon.ru/point/1279904",
      "operationTime": "неизвестно",
      "coordinates": [
        37.30583399999999,
        47.05643600001359
      ]
    },
    {
      "name": "Днепрорудное, ул. Шахтерская, 24\n",
      "address": "Днепрорудное, ул. Шахтерская, 24\n",
      "link": "https://ozon.ru/point/1279943",
      "operationTime": "неизвестно",
      "coordinates": [
        34.99625199999999,
        47.388064000012605
      ]
    },
    {
      "name": "Токмак, ул. Центральная, 22\n",
      "address": "Токмак, ул. Центральная, 22\n",
      "link": "https://ozon.ru/point/1279707",
      "operationTime": "неизвестно",
      "coordinates": [
        35.709407,
        47.258522000013
      ]
    },
    {
      "name": "Краснодон, ул. Артёма 1а",
      "address": "Краснодон, ул. Артёма 1а",
      "link": "https://ozon.ru/point/1279696",
      "operationTime": "неизвестно",
      "coordinates": [
        39.746157000000004,
        48.28555600001002
      ]
    },
    {
      "name": "Старобельск кв Ватутина 30а",
      "address": "Старобельск кв Ватутина 30а",
      "link": "https://ozon.ru/point/1279720",
      "operationTime": "неизвестно",
      "coordinates": [
        38.91255299999999,
        49.27223400000722
      ]
    },
    {
      "name": "Меловое, ул. Дружбы народов, 103",
      "address": "Меловое, ул. Дружбы народов, 103",
      "link": "https://ozon.ru/point/1279921",
      "operationTime": "неизвестно",
      "coordinates": [
        40.145629,
        49.3763460000069
      ]
    },
    {
      "name": "Луганск, ул. Ульянова д. 36",
      "address": "Луганск, ул. Ульянова д. 36",
      "link": "https://ozon.ru/point/1278567",
      "operationTime": "неизвестно",
      "coordinates": [
        39.383301000000024,
        48.60988400000906
      ]
    },
    {
      "name": "Донецк, ул. Куйбышева, 105а",
      "address": "Донецк, ул. Куйбышева, 105а",
      "link": "https://ozon.ru/point/1277568",
      "operationTime": "неизвестно",
      "coordinates": [
        37.762093000000014,
        47.998824000010835
      ]
    },
    {
      "name": "Донецк, ул. Политбойцов, 1А",
      "address": "Донецк, ул. Политбойцов, 1А",
      "link": "https://ozon.ru/point/1277614",
      "operationTime": "неизвестно",
      "coordinates": [
        37.775290000000005,
        48.04832400001073
      ]
    },
    {
      "name": "Донецк, ул. Пухова, 24",
      "address": "Донецк, ул. Пухова, 24",
      "link": "https://ozon.ru/point/1277583",
      "operationTime": "неизвестно",
      "coordinates": [
        37.810993,
        47.95730400001097
      ]
    },
    {
      "name": "пгт. Мангуш, ул. Титова, 111а",
      "address": "пгт. Мангуш, ул. Титова, 111а",
      "link": "https://ozon.ru/point/1277618",
      "operationTime": "неизвестно",
      "coordinates": [
        37.30931899999999,
        47.050402000013605
      ]
    },
    {
      "name": "пгт Безыменное, ул. Советская, 41А",
      "address": "пгт Безыменное, ул. Советская, 41А",
      "link": "https://ozon.ru/point/1277571",
      "operationTime": "неизвестно",
      "coordinates": [
        37.940228999999995,
        47.107572000013405
      ]
    },
    {
      "name": "Макеевка, ул. Фонтанная, 43",
      "address": "Макеевка, ул. Фонтанная, 43",
      "link": "https://ozon.ru/point/1277606",
      "operationTime": "неизвестно",
      "coordinates": [
        37.892798000000006,
        48.02050600001078
      ]
    },
    {
      "name": "Макеевка, ул. Генерала Данилова, 32",
      "address": "Макеевка, ул. Генерала Данилова, 32",
      "link": "https://ozon.ru/point/1277557",
      "operationTime": "неизвестно",
      "coordinates": [
        38.01134000000001,
        48.04455300001073
      ]
    },
    {
      "name": "Михайловка, ул. Школьная, 59",
      "address": "Михайловка, ул. Школьная, 59",
      "link": "https://ozon.ru/point/1277632",
      "operationTime": "неизвестно",
      "coordinates": [
        32.65287999999999,
        46.281092000015875
      ]
    },
    {
      "name": "пгт Новая Маячка, ул. Соборная, 114",
      "address": "пгт Новая Маячка, ул. Соборная, 114",
      "link": "https://ozon.ru/point/1277634",
      "operationTime": "неизвестно",
      "coordinates": [
        33.228305000000006,
        46.60336300001491
      ]
    },
    {
      "name": "пгт Троицкое, пр-кт Победы, 40",
      "address": "пгт Троицкое, пр-кт Победы, 40",
      "link": "https://ozon.ru/point/1277570",
      "operationTime": "неизвестно",
      "coordinates": [
        38.285874,
        49.90741800000546
      ]
    },
    {
      "name": "пгт Брянка, пл. Ленина, 1А",
      "address": "пгт Брянка, пл. Ленина, 1А",
      "link": "https://ozon.ru/point/1277591",
      "operationTime": "неизвестно",
      "coordinates": [
        38.667514,
        48.50462600000938
      ]
    },
    {
      "name": "Старобельск, кв. Ватутина, 53",
      "address": "Старобельск, кв. Ватутина, 53",
      "link": "https://ozon.ru/point/1277589",
      "operationTime": "неизвестно",
      "coordinates": [
        38.91219799999999,
        49.2707050000072
      ]
    },
    {
      "name": "Первомайск, Островского, 1А",
      "address": "Первомайск, Островского, 1А",
      "link": "https://ozon.ru/point/1277623",
      "operationTime": "неизвестно",
      "coordinates": [
        38.52853599999999,
        48.63112800000902
      ]
    },
    {
      "name": "Зоринск, ул. Ленина, 2",
      "address": "Зоринск, ул. Ленина, 2",
      "link": "https://ozon.ru/point/1277616",
      "operationTime": "неизвестно",
      "coordinates": [
        38.618673,
        48.41606300000964
      ]
    },
    {
      "name": "Бильмакский р-н, с. Смирново",
      "address": "Бильмакский р-н, с. Смирново",
      "link": "https://ozon.ru/point/1277579",
      "operationTime": "неизвестно",
      "coordinates": [
        36.54142800000002,
        47.22002100001312
      ]
    },
    {
      "name": "Мелитополь, ул. Гвардейская, 52",
      "address": "Мелитополь, ул. Гвардейская, 52",
      "link": "https://ozon.ru/point/1277585",
      "operationTime": "неизвестно",
      "coordinates": [
        35.343074000000016,
        46.88687500001412
      ]
    },
    {
      "name": "Донецк, ул. Куйбышева, 15",
      "address": "Донецк, ул. Куйбышева, 15",
      "link": "https://ozon.ru/point/1277628",
      "operationTime": "неизвестно",
      "coordinates": [
        37.802769,
        47.97391700001094
      ]
    },
    {
      "name": "Бехтеры, ул. Таврийская, 5",
      "address": "Бехтеры, ул. Таврийская, 5",
      "link": "https://ozon.ru/point/1277558",
      "operationTime": "неизвестно",
      "coordinates": [
        32.29246699999998,
        46.248638000015966
      ]
    },
    {
      "name": "Лутугино, ул. Крупской, 18",
      "address": "Лутугино, ул. Крупской, 18",
      "link": "https://ozon.ru/point/1277325",
      "operationTime": "неизвестно",
      "coordinates": [
        39.20078099999999,
        48.398311000009684
      ]
    },
    {
      "name": "пгт Новопсков, ул. Ленина, 53",
      "address": "пгт Новопсков, ул. Ленина, 53",
      "link": "https://ozon.ru/point/1277559",
      "operationTime": "неизвестно",
      "coordinates": [
        39.09574099999996,
        49.54364900000645
      ]
    },
    {
      "name": "Энергодар, ул. Молодежная, 69а",
      "address": "Энергодар, ул. Молодежная, 69а",
      "link": "https://ozon.ru/point/1264636",
      "operationTime": "неизвестно",
      "coordinates": [
        34.65606899999999,
        47.487441000012346
      ]
    },
    {
      "name": "Луганск, кв. Южный д. 3А, пом. 109 А",
      "address": "Луганск, кв. Южный д. 3А, пом. 109 А",
      "link": "https://ozon.ru/point/1263967",
      "operationTime": "неизвестно",
      "coordinates": [
        39.24937100000001,
        48.529245000009304
      ]
    },
    {
      "name": "Луганск, ул. В. Титова, д. 13, пом. 41, ком. 40",
      "address": "Луганск, ул. В. Титова, д. 13, пом. 41, ком. 40",
      "link": "https://ozon.ru/point/1264124",
      "operationTime": "неизвестно",
      "coordinates": [
        39.306467999999974,
        48.57365200000917
      ]
    },
    {
      "name": "Луганск, ул. Новосёлова д.2",
      "address": "Луганск, ул. Новосёлова д.2",
      "link": "https://ozon.ru/point/1263964",
      "operationTime": "неизвестно",
      "coordinates": [
        39.32624900000001,
        48.54923500000926
      ]
    },
    {
      "name": "Луганск, кв. Героев Брестской крепости, д. 6, пом. 63",
      "address": "Луганск, кв. Героев Брестской крепости, д. 6, пом. 63",
      "link": "https://ozon.ru/point/1263962",
      "operationTime": "неизвестно",
      "coordinates": [
        39.328557999999965,
        48.55791200000921
      ]
    },
    {
      "name": "Мелитополь, проспект 50-летия Победы, 17/1",
      "address": "Мелитополь, проспект 50-летия Победы, 17/1",
      "link": "https://ozon.ru/point/1263961",
      "operationTime": "неизвестно",
      "coordinates": [
        35.37676099999999,
        46.85757000001417
      ]
    },
    {
      "name": "Мелитополь, б-р 30-летия Победы, 3",
      "address": "Мелитополь, б-р 30-летия Победы, 3",
      "link": "https://ozon.ru/point/1264141",
      "operationTime": "неизвестно",
      "coordinates": [
        35.37953699999999,
        46.870028000014145
      ]
    },
    {
      "name": "Старобешево, ул. Победы, 94Б",
      "address": "Старобешево, ул. Победы, 94Б",
      "link": "https://ozon.ru/point/1263965",
      "operationTime": "неизвестно",
      "coordinates": [
        38.02034999999998,
        47.75164300001152
      ]
    },
    {
      "name": "Мариуполь, ул. 130-й Таганрогской Дивизии, 5а",
      "address": "Мариуполь, ул. 130-й Таганрогской Дивизии, 5а",
      "link": "https://ozon.ru/point/1264149",
      "operationTime": "неизвестно",
      "coordinates": [
        37.66907299999998,
        47.106468000013436
      ]
    },
    {
      "name": "Мариуполь, пр-кт Ленина, 13",
      "address": "Мариуполь, пр-кт Ленина, 13",
      "link": "https://ozon.ru/point/1264116",
      "operationTime": "неизвестно",
      "coordinates": [
        37.55902899999998,
        47.09417500001346
      ]
    },
    {
      "name": "Макеевка, ул. Лазарева, 3",
      "address": "Макеевка, ул. Лазарева, 3",
      "link": "https://ozon.ru/point/1264138",
      "operationTime": "неизвестно",
      "coordinates": [
        37.99994900000001,
        48.0466790000107
      ]
    },
    {
      "name": "Макеевка, квартал Химик 8",
      "address": "Макеевка, квартал Химик 8",
      "link": "https://ozon.ru/point/1264118",
      "operationTime": "неизвестно",
      "coordinates": [
        37.95610200000001,
        48.09266600001056
      ]
    },
    {
      "name": "Донецк, ул. Стадионная, 6",
      "address": "Донецк, ул. Стадионная, 6",
      "link": "https://ozon.ru/point/1264106",
      "operationTime": "неизвестно",
      "coordinates": [
        37.788854,
        47.990648000010886
      ]
    },
    {
      "name": "Донецк, пр-кт Ленинский, 26",
      "address": "Донецк, пр-кт Ленинский, 26",
      "link": "https://ozon.ru/point/1264146",
      "operationTime": "неизвестно",
      "coordinates": [
        37.775962999999976,
        47.98024500001086
      ]
    },
    {
      "name": "Амвросиевка, ул. Павших Коммунаров, 4",
      "address": "Амвросиевка, ул. Павших Коммунаров, 4",
      "link": "https://ozon.ru/point/1263963",
      "operationTime": "неизвестно",
      "coordinates": [
        38.47430500000004,
        47.795002000011465
      ]
    },
    {
      "name": "Алчевск, ул. Гмыри 20 ",
      "address": "Алчевск, ул. Гмыри 20 ",
      "link": "https://ozon.ru/point/1264128",
      "operationTime": "неизвестно",
      "coordinates": [
        38.832175000000014,
        48.46806800000948
      ]
    },
    {
      "name": "с. Осипенко ул. Соколова, 17В",
      "address": "с. Осипенко ул. Соколова, 17В",
      "link": "https://ozon.ru/point/1264145",
      "operationTime": "неизвестно",
      "coordinates": [
        36.81934899999998,
        46.91761700001402
      ]
    },
    {
      "name": "г. Краснодон, ул. Комсомольская 1",
      "address": "г. Краснодон, ул. Комсомольская 1",
      "link": "https://ozon.ru/point/1262328",
      "operationTime": "неизвестно",
      "coordinates": [
        39.738745999999985,
        48.29653800000997
      ]
    },
    {
      "name": "с. Михайловка, пер. Соборный 1",
      "address": "с. Михайловка, пер. Соборный 1",
      "link": "https://ozon.ru/point/1262343",
      "operationTime": "неизвестно",
      "coordinates": [
        35.221568000000005,
        47.26783500001297
      ]
    },
    {
      "name": "Шахтерск, ул. Кирова, 21",
      "address": "Шахтерск, ул. Кирова, 21",
      "link": "https://ozon.ru/point/1262302",
      "operationTime": "неизвестно",
      "coordinates": [
        38.47553500000001,
        48.050112000010664
      ]
    },
    {
      "name": "Мариуполь, ул. Энгельса (Нильсена), 1",
      "address": "Мариуполь, ул. Энгельса (Нильсена), 1",
      "link": "https://ozon.ru/point/1262311",
      "operationTime": "неизвестно",
      "coordinates": [
        37.545671000000006,
        47.09021800001351
      ]
    },
    {
      "name": "Мариуполь, ул. Олимпийская 61а",
      "address": "Мариуполь, ул. Олимпийская 61а",
      "link": "https://ozon.ru/point/1262345",
      "operationTime": "неизвестно",
      "coordinates": [
        37.67109399999998,
        47.10929500001346
      ]
    },
    {
      "name": "Мариуполь, ул. Киевская, 44а",
      "address": "Мариуполь, ул. Киевская, 44а",
      "link": "https://ozon.ru/point/1262309",
      "operationTime": "неизвестно",
      "coordinates": [
        37.684550999999985,
        47.116881000013436
      ]
    },
    {
      "name": "Мариуполь, ул. Гранитная 126",
      "address": "Мариуполь, ул. Гранитная 126",
      "link": "https://ozon.ru/point/1262301",
      "operationTime": "неизвестно",
      "coordinates": [
        37.516575000000024,
        47.12597500001339
      ]
    },
    {
      "name": "Мариуполь, ЖК Невский, ул. Ленина 163",
      "address": "Мариуполь, ЖК Невский, ул. Ленина 163",
      "link": "https://ozon.ru/point/1262310",
      "operationTime": "неизвестно",
      "coordinates": [
        37.49883799999999,
        47.10185900001346
      ]
    },
    {
      "name": "Макеевка, ул. Советская 192",
      "address": "Макеевка, ул. Советская 192",
      "link": "https://ozon.ru/point/1262333",
      "operationTime": "неизвестно",
      "coordinates": [
        37.946149000000005,
        48.09072200001058
      ]
    },
    {
      "name": "Макеевка, Центрально-городской район, ул. Ярошенко, 12\\56",
      "address": "Макеевка, Центрально-городской район, ул. Ярошенко, 12\\56",
      "link": "https://ozon.ru/point/1262325",
      "operationTime": "неизвестно",
      "coordinates": [
        37.981838999999965,
        48.086570000010624
      ]
    },
    {
      "name": "Макеевка, Советский район, м-р Магистральный, д.5",
      "address": "Макеевка, Советский район, м-р Магистральный, д.5",
      "link": "https://ozon.ru/point/1262298",
      "operationTime": "неизвестно",
      "coordinates": [
        38.074778999999985,
        48.08259100001061
      ]
    },
    {
      "name": "Донецк, ул. Куйбышева, 196",
      "address": "Донецк, ул. Куйбышева, 196",
      "link": "https://ozon.ru/point/1264142",
      "operationTime": "неизвестно",
      "coordinates": [
        37.756651000000005,
        48.022292000010786
      ]
    },
    {
      "name": "Горловка, проспект Победы 81а",
      "address": "Горловка, проспект Победы 81а",
      "link": "https://ozon.ru/point/1270660",
      "operationTime": "неизвестно",
      "coordinates": [
        37.985909,
        48.30794300000996
      ]
    },
    {
      "name": "Донецк, ул. Петровского, 120",
      "address": "Донецк, ул. Петровского, 120",
      "link": "https://ozon.ru/point/1270671",
      "operationTime": "неизвестно",
      "coordinates": [
        37.703396999999974,
        47.95374200001097
      ]
    },
    {
      "name": "Иловайск, ул. Шевченко 80",
      "address": "Иловайск, ул. Шевченко 80",
      "link": "https://ozon.ru/point/1270269",
      "operationTime": "неизвестно",
      "coordinates": [
        38.19907,
        47.92362700001107
      ]
    },
    {
      "name": "Донецк, ул. Уборевича 36",
      "address": "Донецк, ул. Уборевича 36",
      "link": "https://ozon.ru/point/1270243",
      "operationTime": "неизвестно",
      "coordinates": [
        37.631334999999986,
        47.940313000011
      ]
    },
    {
      "name": "Володарское, ул. Ленина, 95",
      "address": "Володарское, ул. Ленина, 95",
      "link": "https://ozon.ru/point/1270666",
      "operationTime": "неизвестно",
      "coordinates": [
        37.318593000000014,
        47.20276200001315
      ]
    },
    {
      "name": "Бердянск, ул. Владимира Довганюка, 91",
      "address": "Бердянск, ул. Владимира Довганюка, 91",
      "link": "https://ozon.ru/point/1270253",
      "operationTime": "неизвестно",
      "coordinates": [
        36.791778000000015,
        46.768625000014474
      ]
    },
    {
      "name": "Мелитополь, ул. Кирова, 54",
      "address": "Мелитополь, ул. Кирова, 54",
      "link": "https://ozon.ru/point/1270242",
      "operationTime": "неизвестно",
      "coordinates": [
        35.35975599999999,
        46.84366600001423
      ]
    },
    {
      "name": " с.Водяное ,ул.Мира, 144",
      "address": " с.Водяное ,ул.Мира, 144",
      "link": "https://ozon.ru/point/1270661",
      "operationTime": "неизвестно",
      "coordinates": [
        34.49220800000001,
        47.487739000012326
      ]
    },
    {
      "name": "Луганск, квартал Гагарина д.10. пом 82",
      "address": "Луганск, квартал Гагарина д.10. пом 82",
      "link": "https://ozon.ru/point/1270667",
      "operationTime": "неизвестно",
      "coordinates": [
        39.402094000000005,
        48.57295400000918
      ]
    },
    {
      "name": "Петровское, ул. Ленина, 16",
      "address": "Петровское, ул. Ленина, 16",
      "link": "https://ozon.ru/point/1270674",
      "operationTime": "неизвестно",
      "coordinates": [
        38.88696399999997,
        48.29178400000998
      ]
    },
    {
      "name": "Рубежное, ул. Менделеева 22а",
      "address": "Рубежное, ул. Менделеева 22а",
      "link": "https://ozon.ru/point/1270257",
      "operationTime": "неизвестно",
      "coordinates": [
        38.367019000000006,
        49.02786100000791
      ]
    },
    {
      "name": "Перевальск, пос.Горняцкий, ул.Горняцкая 10а",
      "address": "Перевальск, пос.Горняцкий, ул.Горняцкая 10а",
      "link": "https://ozon.ru/point/1270256",
      "operationTime": "неизвестно",
      "coordinates": [
        38.82242000000001,
        48.45326300000953
      ]
    },
    {
      "name": "Стаханов, ул. Ленина, 39",
      "address": "Стаханов, ул. Ленина, 39",
      "link": "https://ozon.ru/point/1270240",
      "operationTime": "неизвестно",
      "coordinates": [
        38.61329199999999,
        48.542471000009286
      ]
    },
    {
      "name": "Северодонецк, ул. Науки, 13",
      "address": "Северодонецк, ул. Науки, 13",
      "link": "https://ozon.ru/point/1270673",
      "operationTime": "неизвестно",
      "coordinates": [
        38.50846999999999,
        48.94003700000812
      ]
    },
    {
      "name": "Таврийск, ул. Портовая, 42А",
      "address": "Таврийск, ул. Портовая, 42А",
      "link": "https://ozon.ru/point/1270656",
      "operationTime": "неизвестно",
      "coordinates": [
        33.42163999999999,
        46.75586500001448
      ]
    },
    {
      "name": "Новая Каховка, ул. Горького, 38",
      "address": "Новая Каховка, ул. Горького, 38",
      "link": "https://ozon.ru/point/1270658",
      "operationTime": "неизвестно",
      "coordinates": [
        33.35973799999999,
        46.74536800001452
      ]
    },
    {
      "name": "Каховка, ул. Большая Куликовская (К. Маркса), 91 ",
      "address": "Каховка, ул. Большая Куликовская (К. Маркса), 91 ",
      "link": "https://ozon.ru/point/1270267",
      "operationTime": "неизвестно",
      "coordinates": [
        33.48234899999998,
        46.816773000014294
      ]
    },
    {
      "name": "Каховка, просп. Европейский, 14",
      "address": "Каховка, просп. Европейский, 14",
      "link": "https://ozon.ru/point/1270670",
      "operationTime": "неизвестно",
      "coordinates": [
        33.46964599999997,
        46.802532000014345
      ]
    },
    {
      "name": "пос. Ивановка, ул. Вокзальная, 47",
      "address": "пос. Ивановка, ул. Вокзальная, 47",
      "link": "https://ozon.ru/point/1270657",
      "operationTime": "неизвестно",
      "coordinates": [
        38.95809100000001,
        48.22002800001018
      ]
    },
    {
      "name": "пгт Марковка, ул. Ленина,25",
      "address": "пгт Марковка, ул. Ленина,25",
      "link": "https://ozon.ru/point/1270255",
      "operationTime": "неизвестно",
      "coordinates": [
        39.57166200000001,
        49.51879500000653
      ]
    },
    {
      "name": "Стаханов, ул. Карла Либкнехта, 6",
      "address": "Стаханов, ул. Карла Либкнехта, 6",
      "link": "https://ozon.ru/point/1276193",
      "operationTime": "неизвестно",
      "coordinates": [
        38.64947599999997,
        48.56147800000923
      ]
    },
    {
      "name": "Свердловск,ул. Энгельса,15",
      "address": "Свердловск,ул. Энгельса,15",
      "link": "https://ozon.ru/point/1270244",
      "operationTime": "неизвестно",
      "coordinates": [
        39.64299500000001,
        48.081297000010586
      ]
    },
    {
      "name": "пгт Новотроицкое, ул. Соборная 33",
      "address": "пгт Новотроицкое, ул. Соборная 33",
      "link": "https://ozon.ru/point/1270261",
      "operationTime": "неизвестно",
      "coordinates": [
        34.342080999999986,
        46.353667000015626
      ]
    },
    {
      "name": "г. Мариуполь, пр. Строителей, 69",
      "address": "г. Мариуполь, пр. Строителей, 69",
      "link": "https://ozon.ru/point/1244319",
      "operationTime": "неизвестно",
      "coordinates": [
        37.520788000000024,
        47.08848000001348
      ]
    },
    {
      "name": "г. Мариуполь, ул. Куприна 41А",
      "address": "г. Мариуполь, ул. Куприна 41А",
      "link": "https://ozon.ru/point/1254095",
      "operationTime": "неизвестно",
      "coordinates": [
        37.51012500000001,
        47.10760000001344
      ]
    },
    {
      "name": "пгт Новый Свет, ул. Энергетическая, 23",
      "address": "пгт Новый Свет, ул. Энергетическая, 23",
      "link": "https://ozon.ru/point/1264108",
      "operationTime": "неизвестно",
      "coordinates": [
        38.02118199999999,
        47.812604000011405
      ]
    },
    {
      "name": "г. Геническ, ул. Вокзальная 9",
      "address": "г. Геническ, ул. Вокзальная 9",
      "link": "https://ozon.ru/point/565080",
      "operationTime": "неизвестно",
      "coordinates": [
        34.81033699999998,
        46.16551300001616
      ]
    },
    {
      "name": "Александровск, ул. Октябрьская, д.41 А",
      "address": "Александровск, ул. Октябрьская, д.41 А",
      "link": "https://ozon.ru/point/1268405",
      "operationTime": "неизвестно",
      "coordinates": [
        39.182123,
        48.587570000009165
      ]
    },
    {
      "name": "Таврийское, пер. Первомайский, 2",
      "address": "Таврийское, пер. Первомайский, 2",
      "link": "https://ozon.ru/point/1268409",
      "operationTime": "неизвестно",
      "coordinates": [
        32.55835899999998,
        46.372075000015606
      ]
    },
    {
      "name": "Раденск, ул. Мира, 24В",
      "address": "Раденск, ул. Мира, 24В",
      "link": "https://ozon.ru/point/1268387",
      "operationTime": "неизвестно",
      "coordinates": [
        32.92761899999999,
        46.551689000015074
      ]
    },
    {
      "name": "Малые Копани, ул. Гагарина, 19А",
      "address": "Малые Копани, ул. Гагарина, 19А",
      "link": "https://ozon.ru/point/1268402",
      "operationTime": "неизвестно",
      "coordinates": [
        32.72893199999999,
        46.43563600001542
      ]
    },
    {
      "name": "Великие Копани, ул. Карла Маркса, 72",
      "address": "Великие Копани, ул. Карла Маркса, 72",
      "link": "https://ozon.ru/point/1268386",
      "operationTime": "неизвестно",
      "coordinates": [
        32.958459999999974,
        46.492943000015224
      ]
    },
    {
      "name": "Геническ, ул. Центральная, 31а",
      "address": "Геническ, ул. Центральная, 31а",
      "link": "https://ozon.ru/point/1268401",
      "operationTime": "неизвестно",
      "coordinates": [
        34.80100400000003,
        46.16575600001619
      ]
    },
    {
      "name": "пос. Щетово, ул. Первомайская, 5",
      "address": "пос. Щетово, ул. Первомайская, 5",
      "link": "https://ozon.ru/point/1268415",
      "operationTime": "неизвестно",
      "coordinates": [
        39.11860500000001,
        48.17039500001036
      ]
    },
    {
      "name": "пгт Белокуракино, ул. Чапаева, 83",
      "address": "пгт Белокуракино, ул. Чапаева, 83",
      "link": "https://ozon.ru/point/1268413",
      "operationTime": "неизвестно",
      "coordinates": [
        38.73668500000001,
        49.52489900000651
      ]
    },
    {
      "name": "пгт Беловодск, ул. Ленина, 134",
      "address": "пгт Беловодск, ул. Ленина, 134",
      "link": "https://ozon.ru/point/1268394",
      "operationTime": "неизвестно",
      "coordinates": [
        39.577759000000015,
        49.206609000007376
      ]
    },
    {
      "name": "Краснодон, п. Котова, 31",
      "address": "Краснодон, п. Котова, 31",
      "link": "https://ozon.ru/point/1268374",
      "operationTime": "неизвестно",
      "coordinates": [
        39.739177000000005,
        48.28834900001002
      ]
    },
    {
      "name": "Антрацит, ул. Петровского, 30",
      "address": "Антрацит, ул. Петровского, 30",
      "link": "https://ozon.ru/point/1268382",
      "operationTime": "неизвестно",
      "coordinates": [
        39.089058000000016,
        48.1138940000105
      ]
    },
    {
      "name": "Антрацит, ул. Кальницкой, 5",
      "address": "Антрацит, ул. Кальницкой, 5",
      "link": "https://ozon.ru/point/1268411",
      "operationTime": "неизвестно",
      "coordinates": [
        39.10164300000001,
        48.10727000001052
      ]
    },
    {
      "name": "пгт Кутейниково, ул. Школьная, 12",
      "address": "пгт Кутейниково, ул. Школьная, 12",
      "link": "https://ozon.ru/point/1268384",
      "operationTime": "неизвестно",
      "coordinates": [
        38.28874900000001,
        47.81191100001139
      ]
    },
    {
      "name": "Донецк, пр-кт Ильича, 7Б,",
      "address": "Донецк, пр-кт Ильича, 7Б,",
      "link": "https://ozon.ru/point/1268406",
      "operationTime": "неизвестно",
      "coordinates": [
        37.809255000000014,
        48.001730000010824
      ]
    },
    {
      "name": "Углегорск, ул. Некрасова 26",
      "address": "Углегорск, ул. Некрасова 26",
      "link": "https://ozon.ru/point/1268407",
      "operationTime": "неизвестно",
      "coordinates": [
        38.261690999999985,
        48.31188700000994
      ]
    },
    {
      "name": "Мариуполь, б-р Шевченко, 317",
      "address": "Мариуполь, б-р Шевченко, 317",
      "link": "https://ozon.ru/point/1268416",
      "operationTime": "неизвестно",
      "coordinates": [
        37.516296000000004,
        47.117955000013396
      ]
    },
    {
      "name": "Мариуполь, 18-й микрорайон (рынок Юмовилла)",
      "address": "Мариуполь, 18-й микрорайон (рынок Юмовилла)",
      "link": "https://ozon.ru/point/1268403",
      "operationTime": "неизвестно",
      "coordinates": [
        37.51495799999997,
        47.11225100001342
      ]
    },
    {
      "name": "Мариуполь пр. Строителей 114",
      "address": "Мариуполь пр. Строителей 114",
      "link": "https://ozon.ru/point/1268377",
      "operationTime": "неизвестно",
      "coordinates": [
        37.52406499999999,
        47.104312000013444
      ]
    },
    {
      "name": "Макеевка, ул. Керченская, 11",
      "address": "Макеевка, ул. Керченская, 11",
      "link": "https://ozon.ru/point/1268379",
      "operationTime": "неизвестно",
      "coordinates": [
        37.996876999999984,
        48.01640200001077
      ]
    },
    {
      "name": "Макеевка, мкрн Зеленый, 46",
      "address": "Макеевка, мкрн Зеленый, 46",
      "link": "https://ozon.ru/point/1268385",
      "operationTime": "неизвестно",
      "coordinates": [
        38.03112100000001,
        48.05188900001069
      ]
    },
    {
      "name": "Енакиево, ул. Брайляна 16",
      "address": "Енакиево, ул. Брайляна 16",
      "link": "https://ozon.ru/point/1268378",
      "operationTime": "неизвестно",
      "coordinates": [
        38.215014999999994,
        48.266960000010044
      ]
    },
    {
      "name": "Докучаевск, ул. Центральная, 29",
      "address": "Докучаевск, ул. Центральная, 29",
      "link": "https://ozon.ru/point/1266645",
      "operationTime": "неизвестно",
      "coordinates": [
        37.674615000000024,
        47.746524000011576
      ]
    },
    {
      "name": "Волноваха, ул. Киевская 1",
      "address": "Волноваха, ул. Киевская 1",
      "link": "https://ozon.ru/point/1266630",
      "operationTime": "неизвестно",
      "coordinates": [
        37.490883,
        47.59436500001205
      ]
    },
    {
      "name": "Макеевка, Генерала Данилова, 71Б",
      "address": "Макеевка, Генерала Данилова, 71Б",
      "link": "https://ozon.ru/point/1266650",
      "operationTime": "неизвестно",
      "coordinates": [
        38.02606300000002,
        48.045444000010704
      ]
    },
    {
      "name": "Макеевка, ул. Кремлевская, 43",
      "address": "Макеевка, ул. Кремлевская, 43",
      "link": "https://ozon.ru/point/1266639",
      "operationTime": "неизвестно",
      "coordinates": [
        37.917089000000004,
        48.05391900001072
      ]
    },
    {
      "name": "Макеевка, ул. Московская, 18",
      "address": "Макеевка, ул. Московская, 18",
      "link": "https://ozon.ru/point/1266215",
      "operationTime": "неизвестно",
      "coordinates": [
        37.960575999999975,
        48.04177000001069
      ]
    },
    {
      "name": "Мариуполь, ул. Адмирала Лунина 31",
      "address": "Мариуполь, ул. Адмирала Лунина 31",
      "link": "https://ozon.ru/point/1266656",
      "operationTime": "неизвестно",
      "coordinates": [
        37.50803200000001,
        47.065616000013534
      ]
    },
    {
      "name": "г.Мелитополь 50 лет Победы, 29",
      "address": "г.Мелитополь 50 лет Победы, 29",
      "link": "https://ozon.ru/point/1205150",
      "operationTime": "неизвестно",
      "coordinates": [
        35.38030899999999,
        46.86333700001417
      ]
    },
    {
      "name": "Донецк, пр-кт Дзержинского, 41",
      "address": "Донецк, пр-кт Дзержинского, 41",
      "link": "https://ozon.ru/point/1266628",
      "operationTime": "неизвестно",
      "coordinates": [
        37.82503799999999,
        47.994012000010834
      ]
    },
    {
      "name": "Донецк, ул. Кадиевская 12",
      "address": "Донецк, ул. Кадиевская 12",
      "link": "https://ozon.ru/point/1266647",
      "operationTime": "неизвестно",
      "coordinates": [
        37.86047700000001,
        48.01915600001079
      ]
    },
    {
      "name": "Макеевка, ул. Ковалевской, 14",
      "address": "Макеевка, ул. Ковалевской, 14",
      "link": "https://ozon.ru/point/1266213",
      "operationTime": "неизвестно",
      "coordinates": [
        37.914214000000015,
        48.06048300001069
      ]
    },
    {
      "name": "пгт Новый Свет, ул. Промышленная, 4",
      "address": "пгт Новый Свет, ул. Промышленная, 4",
      "link": "https://ozon.ru/point/1266657",
      "operationTime": "неизвестно",
      "coordinates": [
        38.02547899999997,
        47.808632000011414
      ]
    },
    {
      "name": "Донецк, ул. Антипова, 1",
      "address": "Донецк, ул. Антипова, 1",
      "link": "https://ozon.ru/point/1266648",
      "operationTime": "неизвестно",
      "coordinates": [
        37.84495400000001,
        48.00292900001084
      ]
    },
    {
      "name": "Луганск, ул. Даргомыжского, 2т",
      "address": "Луганск, ул. Даргомыжского, 2т",
      "link": "https://ozon.ru/point/1266211",
      "operationTime": "неизвестно",
      "coordinates": [
        39.29896700000001,
        48.5372630000093
      ]
    },
    {
      "name": "Новопсков, ул. Школьная, 1",
      "address": "Новопсков, ул. Школьная, 1",
      "link": "https://ozon.ru/point/1266659",
      "operationTime": "неизвестно",
      "coordinates": [
        39.10850599999999,
        49.534973000006495
      ]
    },
    {
      "name": "Ивановка, ул. Декабристов 1 Г",
      "address": "Ивановка, ул. Декабристов 1 Г",
      "link": "https://ozon.ru/point/1266238",
      "operationTime": "неизвестно",
      "coordinates": [
        38.93441300000001,
        48.23426900001016
      ]
    },
    {
      "name": "Червонопартизанск , ул. Комсомольская 2",
      "address": "Червонопартизанск , ул. Комсомольская 2",
      "link": "https://ozon.ru/point/1266249",
      "operationTime": "неизвестно",
      "coordinates": [
        39.800317,
        48.0743380000106
      ]
    },
    {
      "name": "г. Мариуполь, пр-кт Металлургов 223, пом.4",
      "address": "г. Мариуполь, пр-кт Металлургов 223, пом.4",
      "link": "https://ozon.ru/point/1262353",
      "operationTime": "неизвестно",
      "coordinates": [
        37.56696100000001,
        47.133546000013375
      ]
    },
    {
      "name": "г. Мариуполь, ул. Нахимова, 190",
      "address": "г. Мариуполь, ул. Нахимова, 190",
      "link": "https://ozon.ru/point/1243410",
      "operationTime": "неизвестно",
      "coordinates": [
        37.53264599999996,
        47.092770000013516
      ]
    },
    {
      "name": "пгт Григоровка, ул. Пушкина, 20",
      "address": "пгт Григоровка, ул. Пушкина, 20",
      "link": "https://ozon.ru/point/1266658",
      "operationTime": "неизвестно",
      "coordinates": [
        33.735323000000015,
        46.29006600001587
      ]
    },
    {
      "name": "пгт Новогригоровка, ул. Пушкина, 13А",
      "address": "пгт Новогригоровка, ул. Пушкина, 13А",
      "link": "https://ozon.ru/point/1266222",
      "operationTime": "неизвестно",
      "coordinates": [
        34.98159199999997,
        46.4105260000155
      ]
    },
    {
      "name": "пгт Крестовка, ул. Гагарина, 33",
      "address": "пгт Крестовка, ул. Гагарина, 33",
      "link": "https://ozon.ru/point/1266660",
      "operationTime": "неизвестно",
      "coordinates": [
        33.71792299999996,
        46.40256600001553
      ]
    },
    {
      "name": "Преображенка, ул. Таврическая, 25",
      "address": "Преображенка, ул. Таврическая, 25",
      "link": "https://ozon.ru/point/1266257",
      "operationTime": "неизвестно",
      "coordinates": [
        33.47757899999999,
        46.39767500001551
      ]
    },
    {
      "name": "пгт Чкалово, ул. Почтовая, 36",
      "address": "пгт Чкалово, ул. Почтовая, 36",
      "link": "https://ozon.ru/point/1266661",
      "operationTime": "неизвестно",
      "coordinates": [
        34.18264799999997,
        46.479819000015276
      ]
    },
    {
      "name": "г.Мелитополь 50 лет Победы, 29",
      "address": "г.Мелитополь 50 лет Победы, 29",
      "link": "https://ozon.ru/point/1205150",
      "operationTime": "неизвестно",
      "coordinates": [
        35.38030899999999,
        46.86333700001416
      ]
    },
    {
      "name": "Геническ, ул. Курасова, 5а",
      "address": "Геническ, ул. Курасова, 5а",
      "link": "https://ozon.ru/point/1263966",
      "operationTime": "неизвестно",
      "coordinates": [
        34.81173800000003,
        46.18626200001613
      ]
    },
    {
      "name": "Мелитополь, проспект 50-летия Победы, 17/1",
      "address": "Мелитополь, проспект 50-летия Победы, 17/1",
      "link": "https://ozon.ru/point/1263961",
      "operationTime": "неизвестно",
      "coordinates": [
        35.37676099999999,
        46.85757000001419
      ]
    },
    {
      "name": "Мелитополь, б-р 30-летия Победы, 3",
      "address": "Мелитополь, б-р 30-летия Победы, 3",
      "link": "https://ozon.ru/point/1264141",
      "operationTime": "неизвестно",
      "coordinates": [
        35.379536999999985,
        46.87002800001414
      ]
    },
    {
      "name": "с. Осипенко ул. Соколова, 17В",
      "address": "с. Осипенко ул. Соколова, 17В",
      "link": "https://ozon.ru/point/1264145",
      "operationTime": "неизвестно",
      "coordinates": [
        36.81934899999999,
        46.91761700001402
      ]
    },
    {
      "name": "с. Михайловка, пер. Соборный 1",
      "address": "с. Михайловка, пер. Соборный 1",
      "link": "https://ozon.ru/point/1262343",
      "operationTime": "неизвестно",
      "coordinates": [
        35.221568,
        47.26783500001297
      ]
    },
    {
      "name": "Геническая городская община, пгт Новоалексеевка, ул. Дружбы Народов, 22А",
      "address": "Геническая городская община, пгт Новоалексеевка, ул. Дружбы Народов, 22А",
      "link": "https://ozon.ru/point/1259979",
      "operationTime": "неизвестно",
      "coordinates": [
        34.64445100000001,
        46.227200000016005
      ]
    },
    {
      "name": "пгт. Белое, ул. Ленина, 1Г",
      "address": "пгт. Белое, ул. Ленина, 1Г",
      "link": "https://ozon.ru/point/1259970",
      "operationTime": "неизвестно",
      "coordinates": [
        39.04818499999997,
        48.49465000000939
      ]
    },
    {
      "name": "пгт Новоайдар ул. Кирова, 2",
      "address": "пгт Новоайдар ул. Кирова, 2",
      "link": "https://ozon.ru/point/1259978",
      "operationTime": "неизвестно",
      "coordinates": [
        38.994677,
        48.95941700000811
      ]
    },
    {
      "name": "Счастье, ул. Донецкая, 30",
      "address": "Счастье, ул. Донецкая, 30",
      "link": "https://ozon.ru/point/1259995",
      "operationTime": "неизвестно",
      "coordinates": [
        39.234657000000006,
        48.735871000008714
      ]
    },
    {
      "name": "Счастье ул. Донецкая, 105",
      "address": "Счастье ул. Донецкая, 105",
      "link": "https://ozon.ru/point/1259985",
      "operationTime": "неизвестно",
      "coordinates": [
        39.226513000000025,
        48.73979000000871
      ]
    },
    {
      "name": "Луганск, пос. Тельмана, ул. Успенская, д. 66А",
      "address": "Луганск, пос. Тельмана, ул. Успенская, д. 66А",
      "link": "https://ozon.ru/point/1259966",
      "operationTime": "неизвестно",
      "coordinates": [
        39.29606499999997,
        48.50542600000939
      ]
    },
    {
      "name": "Луганск, пгт Юбилейный, ул. Артема, 3",
      "address": "Луганск, пгт Юбилейный, ул. Артема, 3",
      "link": "https://ozon.ru/point/1259996",
      "operationTime": "неизвестно",
      "coordinates": [
        39.18710000000002,
        48.55792400000922
      ]
    },
    {
      "name": "Луганск, ул. Ульянова, 34",
      "address": "Луганск, ул. Ульянова, 34",
      "link": "https://ozon.ru/point/1259965",
      "operationTime": "неизвестно",
      "coordinates": [
        39.38357000000002,
        48.60989000000909
      ]
    },
    {
      "name": "Луганск, ул. Артема, 183",
      "address": "Луганск, ул. Артема, 183",
      "link": "https://ozon.ru/point/1259989",
      "operationTime": "неизвестно",
      "coordinates": [
        39.306746,
        48.59063300000913
      ]
    },
    {
      "name": "Луганск, кв. Луганский, д.12, кв. 4",
      "address": "Луганск, кв. Луганский, д.12, кв. 4",
      "link": "https://ozon.ru/point/1259983",
      "operationTime": "неизвестно",
      "coordinates": [
        39.277587000000004,
        48.5384620000093
      ]
    },
    {
      "name": "Александровск, ул. Красная Площадь, 10",
      "address": "Александровск, ул. Красная Площадь, 10",
      "link": "https://ozon.ru/point/1259976",
      "operationTime": "неизвестно",
      "coordinates": [
        39.187332999999974,
        48.584643000009144
      ]
    },
    {
      "name": "Алчевск, пр. Металлургов, 41",
      "address": "Алчевск, пр. Металлургов, 41",
      "link": "https://ozon.ru/point/1259997",
      "operationTime": "неизвестно",
      "coordinates": [
        38.839497,
        48.47084600000948
      ]
    },
    {
      "name": "пгт. Тельманово, пер. Мира 9, кв32",
      "address": "пгт. Тельманово, пер. Мира 9, кв32",
      "link": "https://ozon.ru/point/1259998",
      "operationTime": "неизвестно",
      "coordinates": [
        38.01568000000003,
        47.41516900001257
      ]
    },
    {
      "name": "с. Малая Белозерка, ул. Первомайская",
      "address": "с. Малая Белозерка, ул. Первомайская",
      "link": "https://ozon.ru/point/1259969",
      "operationTime": "неизвестно",
      "coordinates": [
        34.93002500000002,
        47.24410100001307
      ]
    },
    {
      "name": "Мелитополь, ул. Довженко, д. 3",
      "address": "Мелитополь, ул. Довженко, д. 3",
      "link": "https://ozon.ru/point/1259988",
      "operationTime": "неизвестно",
      "coordinates": [
        35.393937000000015,
        46.8575880000142
      ]
    },
    {
      "name": "пгт Старобешево ул. Советская, 49Б",
      "address": "пгт Старобешево ул. Советская, 49Б",
      "link": "https://ozon.ru/point/1260205",
      "operationTime": "неизвестно",
      "coordinates": [
        38.03607900000001,
        47.75297000001154
      ]
    },
    {
      "name": "Шахтёрск, ул. Вентиляционная 51",
      "address": "Шахтёрск, ул. Вентиляционная 51",
      "link": "https://ozon.ru/point/1259977",
      "operationTime": "неизвестно",
      "coordinates": [
        38.422227000000014,
        48.08354700001061
      ]
    },
    {
      "name": "г. Донецк, ул. Панфилова 21",
      "address": "г. Донецк, ул. Панфилова 21",
      "link": "https://ozon.ru/point/1255309",
      "operationTime": "неизвестно",
      "coordinates": [
        37.782242999999994,
        48.02090000001079
      ]
    },
    {
      "name": "г. Макеевка, ул. Николаева, 14",
      "address": "г. Макеевка, ул. Николаева, 14",
      "link": "https://ozon.ru/point/1243408",
      "operationTime": "неизвестно",
      "coordinates": [
        37.931821000000014,
        48.02676700001076
      ]
    },
    {
      "name": "г. Донецк, ул. Лавренева, 31",
      "address": "г. Донецк, ул. Лавренева, 31",
      "link": "https://ozon.ru/point/1244314",
      "operationTime": "неизвестно",
      "coordinates": [
        37.795798,
        48.0441430000107
      ]
    },
    {
      "name": "г. Алчевск, ул. Чапаева, 45",
      "address": "г. Алчевск, ул. Чапаева, 45",
      "link": "https://ozon.ru/point/1258309",
      "operationTime": "неизвестно",
      "coordinates": [
        38.806680999999976,
        48.46622800000952
      ]
    },
    {
      "name": "Геническая городская община, село Стрелковое, улица Центральная 105б",
      "address": "Геническая городская община, село Стрелковое, улица Центральная 105б",
      "link": "https://ozon.ru/point/1258319",
      "operationTime": "неизвестно",
      "coordinates": [
        34.87531599999998,
        45.90111900001695
      ]
    },
    {
      "name": "Харцызск, ул. Патона 7",
      "address": "Харцызск, ул. Патона 7",
      "link": "https://ozon.ru/point/1258324",
      "operationTime": "неизвестно",
      "coordinates": [
        38.127159999999996,
        48.041023000010746
      ]
    },
    {
      "name": "Донецк, ул.Шутова, 12/1",
      "address": "Донецк, ул.Шутова, 12/1",
      "link": "https://ozon.ru/point/1258312",
      "operationTime": "неизвестно",
      "coordinates": [
        37.769911999999984,
        47.94429600001104
      ]
    },
    {
      "name": "Горловка, ул. Битумная 8",
      "address": "Горловка, ул. Битумная 8",
      "link": "https://ozon.ru/point/1258315",
      "operationTime": "неизвестно",
      "coordinates": [
        38.193176999999984,
        48.299027000009964
      ]
    },
    {
      "name": "пгт Булавинское ул. Октябрьская 53, 47",
      "address": "пгт Булавинское ул. Октябрьская 53, 47",
      "link": "https://ozon.ru/point/1258311",
      "operationTime": "неизвестно",
      "coordinates": [
        38.333593,
        48.25507800001011
      ]
    },
    {
      "name": "Бердянск, Софиевская улица, 40",
      "address": "Бердянск, Софиевская улица, 40",
      "link": "https://ozon.ru/point/1258314",
      "operationTime": "неизвестно",
      "coordinates": [
        36.790592,
        46.77002600001443
      ]
    },
    {
      "name": "Мелитополь, ул. Молодежная, 60",
      "address": "Мелитополь, ул. Молодежная, 60",
      "link": "https://ozon.ru/point/1258320",
      "operationTime": "неизвестно",
      "coordinates": [
        35.328493999999964,
        46.8518750000142
      ]
    },
    {
      "name": "г. Геническ. Проспект Мира 87",
      "address": "г. Геническ. Проспект Мира 87",
      "link": "https://ozon.ru/point/1258318",
      "operationTime": "неизвестно",
      "coordinates": [
        34.81339100000003,
        46.17336400001617
      ]
    },
    {
      "name": "Харцызск, ул. Адамца 52",
      "address": "Харцызск, ул. Адамца 52",
      "link": "https://ozon.ru/point/1258313",
      "operationTime": "неизвестно",
      "coordinates": [
        38.15971499999999,
        48.04169100001074
      ]
    },
    {
      "name": "Енакиево, ул. Магистральная 12",
      "address": "Енакиево, ул. Магистральная 12",
      "link": "https://ozon.ru/point/1258323",
      "operationTime": "неизвестно",
      "coordinates": [
        38.144084000000014,
        48.271371600010056
      ]
    },
    {
      "name": "Донецк, ул. Петровского 26а",
      "address": "Донецк, ул. Петровского 26а",
      "link": "https://ozon.ru/point/1258310",
      "operationTime": "неизвестно",
      "coordinates": [
        37.727921,
        47.95835800001098
      ]
    },
    {
      "name": "Донецк, ул. Очаковская,24",
      "address": "Донецк, ул. Очаковская,24",
      "link": "https://ozon.ru/point/1258316",
      "operationTime": "неизвестно",
      "coordinates": [
        37.79366899999998,
        48.04208300001071
      ]
    },
    {
      "name": "Горловка, ул. Уманская 33",
      "address": "Горловка, ул. Уманская 33",
      "link": "https://ozon.ru/point/1258317",
      "operationTime": "неизвестно",
      "coordinates": [
        38.03939399999998,
        48.317028000009905
      ]
    },
    {
      "name": " Ровеньки,  ул.Коммунистическая 13а                                           ",
      "address": " Ровеньки,  ул.Коммунистическая 13а                                           ",
      "link": "https://ozon.ru/point/1258322",
      "operationTime": "неизвестно",
      "coordinates": [
        39.36245999999997,
        48.08619600001058
      ]
    },
    {
      "name": "Пгт. Беловодск, Политотделовская 48",
      "address": "Пгт. Беловодск, Политотделовская 48",
      "link": "https://ozon.ru/point/1255361",
      "operationTime": "неизвестно",
      "coordinates": [
        39.59488099999999,
        49.21894400000733
      ]
    },
    {
      "name": "г. Торез, ул. Ильича 22",
      "address": "г. Торез, ул. Ильича 22",
      "link": "https://ozon.ru/point/1255354",
      "operationTime": "неизвестно",
      "coordinates": [
        38.628042000000036,
        48.02304300001079
      ]
    },