{
  "name": "7dostavka",
  "source": "https://dostavka.7telecom.ru",
  "points": [
    {
      "name": "пгт Григоровка, ул. Пушкина, 20",
      "address": "пгт Григоровка, ул. Пушкина, 20",
      "link": "https://ozon.ru/point/1266658",
      "operationTime": "неизвестно",
      "coordinates": [
        38.11596218750002,
        47.87887749874464
      ]
    },
    {
      "name": "пгт Новогригоровка, ул. Пушкина, 13А",
      "address": "пгт Новогригоровка, ул. Пушкина, 13А",
      "link": "https://ozon.ru/point/1266222",
      "operationTime": "неизвестно",
      "coordinates": [
        34.981591999999964,
        46.41052600001548
      ]
    },
    {
      "name": "пгт Крестовка, ул. Гагарина, 33",
      "address": "пгт Крестовка, ул. Гагарина, 33",
      "link": "https://ozon.ru/point/1266660",
      "operationTime": "неизвестно",
      "coordinates": [
        33.71792299999997,
        46.40256600001553
      ]
    },
    {
      "name": "Преображенка, ул. Таврическая, 25",
      "address": "Преображенка, ул. Таврическая, 25",
      "link": "https://ozon.ru/point/1266257",
      "operationTime": "неизвестно",
      "coordinates": [
        33.47757899999999,
        46.39767500001554
      ]
    },
    {
      "name": "пгт Чкалово, ул. Почтовая, 36",
      "address": "пгт Чкалово, ул. Почтовая, 36",
      "link": "https://ozon.ru/point/1266661",
      "operationTime": "неизвестно",
      "coordinates": [
        34.18264799999997,
        46.47981900001528
      ]
    },
    {
      "name": "г.Мелитополь 50 лет Победы, 29",
      "address": "г.Мелитополь 50 лет Победы, 29",
      "link": "https://ozon.ru/point/1205150",
      "operationTime": "неизвестно",
      "coordinates": [
        35.380309,
        46.86333700001416
      ]
    },
    {
      "name": "Геническ, ул. Курасова, 5а",
      "address": "Геническ, ул. Курасова, 5а",
      "link": "https://ozon.ru/point/1263966",
      "operationTime": "неизвестно",
      "coordinates": [
        34.811738000000034,
        46.18626200001613
      ]
    },
    {
      "name": "Мелитополь, проспект 50-летия Победы, 17/1",
      "address": "Мелитополь, проспект 50-летия Победы, 17/1",
      "link": "https://ozon.ru/point/1263961",
      "operationTime": "неизвестно",
      "coordinates": [
        35.376761,
        46.85757000001417
      ]
    },
    {
      "name": "Мелитополь, б-р 30-летия Победы, 3",
      "address": "Мелитополь, б-р 30-летия Победы, 3",
      "link": "https://ozon.ru/point/1264141",
      "operationTime": "неизвестно",
      "coordinates": [
        35.379536999999985,
        46.87002800001414
      ]
    },
    {
      "name": "с. Осипенко ул. Соколова, 17В",
      "address": "с. Осипенко ул. Соколова, 17В",
      "link": "https://ozon.ru/point/1264145",
      "operationTime": "неизвестно",
      "coordinates": [
        36.81934899999998,
        46.91761700001402
      ]
    },
    {
      "name": "с. Михайловка, пер. Соборный 1",
      "address": "с. Михайловка, пер. Соборный 1",
      "link": "https://ozon.ru/point/1262343",
      "operationTime": "неизвестно",
      "coordinates": [
        35.22156799999999,
        47.26783500001297
      ]
    },
    {
      "name": "Геническая городская община, пгт Новоалексеевка, ул. Дружбы Народов, 22А",
      "address": "Геническая городская община, пгт Новоалексеевка, ул. Дружбы Народов, 22А",
      "link": "https://ozon.ru/point/1259979",
      "operationTime": "неизвестно",
      "coordinates": [
        34.629291000000016,
        46.22884700001601
      ]
    },
    {
      "name": "пгт. Белое, ул. Ленина, 1Г",
      "address": "пгт. Белое, ул. Ленина, 1Г",
      "link": "https://ozon.ru/point/1259970",
      "operationTime": "неизвестно",
      "coordinates": [
        39.04818499999996,
        48.494650000009415
      ]
    },
    {
      "name": "пгт Новоайдар ул. Кирова, 2",
      "address": "пгт Новоайдар ул. Кирова, 2",
      "link": "https://ozon.ru/point/1259978",
      "operationTime": "неизвестно",
      "coordinates": [
        38.994677,
        48.95941700000811
      ]
    },
    {
      "name": "Счастье, ул. Донецкая, 30",
      "address": "Счастье, ул. Донецкая, 30",
      "link": "https://ozon.ru/point/1259995",
      "operationTime": "неизвестно",
      "coordinates": [
        39.234657000000006,
        48.735871000008714
      ]
    },
    {
      "name": "Счастье ул. Донецкая, 105",
      "address": "Счастье ул. Донецкая, 105",
      "link": "https://ozon.ru/point/1259985",
      "operationTime": "неизвестно",
      "coordinates": [
        39.226513000000025,
        48.739790000008696
      ]
    },
    {
      "name": "Луганск, пос. Тельмана, ул. Успенская, д. 66А",
      "address": "Луганск, пос. Тельмана, ул. Успенская, д. 66А",
      "link": "https://ozon.ru/point/1259966",
      "operationTime": "неизвестно",
      "coordinates": [
        39.296064999999984,
        48.50542600000939
      ]
    },
    {
      "name": "Луганск, пгт Юбилейный, ул. Артема, 3",
      "address": "Луганск, пгт Юбилейный, ул. Артема, 3",
      "link": "https://ozon.ru/point/1259996",
      "operationTime": "неизвестно",
      "coordinates": [
        39.18710000000001,
        48.55792400000922
      ]
    },
    {
      "name": "Луганск, ул. Ульянова, 34",
      "address": "Луганск, ул. Ульянова, 34",
      "link": "https://ozon.ru/point/1259965",
      "operationTime": "неизвестно",
      "coordinates": [
        39.383570000000006,
        48.609890000009074
      ]
    },
    {
      "name": "Луганск, ул. Артема, 183",
      "address": "Луганск, ул. Артема, 183",
      "link": "https://ozon.ru/point/1259989",
      "operationTime": "неизвестно",
      "coordinates": [
        39.306746,
        48.59063300000912
      ]
    },
    {
      "name": "Луганск, кв. Луганский, д.12, кв. 4",
      "address": "Луганск, кв. Луганский, д.12, кв. 4",
      "link": "https://ozon.ru/point/1259983",
      "operationTime": "неизвестно",
      "coordinates": [
        39.277587,
        48.5384620000093
      ]
    },
    {
      "name": "Александровск, ул. Красная Площадь, 10",
      "address": "Александровск, ул. Красная Площадь, 10",
      "link": "https://ozon.ru/point/1259976",
      "operationTime": "неизвестно",
      "coordinates": [
        39.18733299999999,
        48.584643000009144
      ]
    },
    {
      "name": "Алчевск, пр. Металлургов, 41",
      "address": "Алчевск, пр. Металлургов, 41",
      "link": "https://ozon.ru/point/1259997",
      "operationTime": "неизвестно",
      "coordinates": [
        38.839497,
        48.47084600000948
      ]
    },
    {
      "name": "пгт. Тельманово, пер. Мира 9, кв32",
      "address": "пгт. Тельманово, пер. Мира 9, кв32",
      "link": "https://ozon.ru/point/1259998",
      "operationTime": "неизвестно",
      "coordinates": [
        38.01568000000002,
        47.41516900001253
      ]
    },
    {
      "name": "с. Малая Белозерка, ул. Первомайская",
      "address": "с. Малая Белозерка, ул. Первомайская",
      "link": "https://ozon.ru/point/1259969",
      "operationTime": "неизвестно",
      "coordinates": [
        34.930025000000015,
        47.24410100001305
      ]
    },
    {
      "name": "Мелитополь, ул. Довженко, д. 3",
      "address": "Мелитополь, ул. Довженко, д. 3",
      "link": "https://ozon.ru/point/1259988",
      "operationTime": "неизвестно",
      "coordinates": [
        35.39393699999999,
        46.8575880000142
      ]
    },
    {
      "name": "пгт Старобешево ул. Советская, 49Б",
      "address": "пгт Старобешево ул. Советская, 49Б",
      "link": "https://ozon.ru/point/1260205",
      "operationTime": "неизвестно",
      "coordinates": [
        38.036079,
        47.752970000011544
      ]
    },
    {
      "name": "Шахтёрск, ул. Вентиляционная 51",
      "address": "Шахтёрск, ул. Вентиляционная 51",
      "link": "https://ozon.ru/point/1259977",
      "operationTime": "неизвестно",
      "coordinates": [
        38.422227000000014,
        48.08354700001062
      ]
    },
    {
      "name": "г. Донецк, ул. Панфилова 21",
      "address": "г. Донецк, ул. Панфилова 21",
      "link": "https://ozon.ru/point/1255309",
      "operationTime": "неизвестно",
      "coordinates": [
        37.52078800000001,
        47.08848200001349
      ]
    },
    {
      "name": "г. Макеевка, ул. Николаева, 14",
      "address": "г. Макеевка, ул. Николаева, 14",
      "link": "https://ozon.ru/point/1243408",
      "operationTime": "неизвестно",
      "coordinates": [
        37.931820999999985,
        48.02676700001078
      ]
    },
    {
      "name": "г. Донецк, ул. Лавренева, 31",
      "address": "г. Донецк, ул. Лавренева, 31",
      "link": "https://ozon.ru/point/1244314",
      "operationTime": "неизвестно",
      "coordinates": [
        37.795798000000005,
        48.0441430000107
      ]
    },
    {
      "name": "г. Алчевск, ул. Чапаева, 45",
      "address": "г. Алчевск, ул. Чапаева, 45",
      "link": "https://ozon.ru/point/1258309",
      "operationTime": "неизвестно",
      "coordinates": [
        38.806680999999976,
        48.466228000009494
      ]
    },
    {
      "name": "Геническая городская община, село Стрелковое, улица Центральная 105б",
      "address": "Геническая городская община, село Стрелковое, улица Центральная 105б",
      "link": "https://ozon.ru/point/1258319",
      "operationTime": "неизвестно",
      "coordinates": [
        34.87531599999999,
        45.90111900001699
      ]
    },
    {
      "name": "Харцызск, ул. Патона 7",
      "address": "Харцызск, ул. Патона 7",
      "link": "https://ozon.ru/point/1258324",
      "operationTime": "неизвестно",
      "coordinates": [
        38.127159999999996,
        48.04102300001073
      ]
    },
    {
      "name": "Донецк, ул.Шутова, 12/1",
      "address": "Донецк, ул.Шутова, 12/1",
      "link": "https://ozon.ru/point/1258312",
      "operationTime": "неизвестно",
      "coordinates": [
        37.769911999999984,
        47.94429600001102
      ]
    },
    {
      "name": "Горловка, ул. Битумная 8",
      "address": "Горловка, ул. Битумная 8",
      "link": "https://ozon.ru/point/1258315",
      "operationTime": "неизвестно",
      "coordinates": [
        38.19317699999999,
        48.299027000009964
      ]
    },
    {
      "name": "пгт Булавинское ул. Октябрьская 53, 47",
      "address": "пгт Булавинское ул. Октябрьская 53, 47",
      "link": "https://ozon.ru/point/1258311",
      "operationTime": "неизвестно",
      "coordinates": [
        38.333592999999986,
        48.255078000010094
      ]
    },
    {
      "name": "Бердянск, Софиевская улица, 40",
      "address": "Бердянск, Софиевская улица, 40",
      "link": "https://ozon.ru/point/1258314",
      "operationTime": "неизвестно",
      "coordinates": [
        36.790592,
        46.7700260000144
      ]
    },
    {
      "name": "Мелитополь, ул. Молодежная, 60",
      "address": "Мелитополь, ул. Молодежная, 60",
      "link": "https://ozon.ru/point/1258320",
      "operationTime": "неизвестно",
      "coordinates": [
        35.328493999999985,
        46.8518750000142
      ]
    },
    {
      "name": "г. Геническ, ул. Вокзальная 9",
      "address": "г. Геническ, ул. Вокзальная 9",
      "link": "https://ozon.ru/point/1258318",
      "operationTime": "неизвестно",
      "coordinates": [
        34.810336999999976,
        46.16551300001619
      ]
    },
    {
      "name": "Харцызск, ул. Адамца 52",
      "address": "Харцызск, ул. Адамца 52",
      "link": "https://ozon.ru/point/1258313",
      "operationTime": "неизвестно",
      "coordinates": [
        38.15971499999999,
        48.041691000010715
      ]
    },
    {
      "name": "Енакиево, ул. Магистральная 12",
      "address": "Енакиево, ул. Магистральная 12",
      "link": "https://ozon.ru/point/1258323",
      "operationTime": "неизвестно",
      "coordinates": [
        38.14408400000001,
        48.27137160001004
      ]
    },
    {
      "name": "Донецк, ул. Петровского 26а",
      "address": "Донецк, ул. Петровского 26а",
      "link": "https://ozon.ru/point/1258310",
      "operationTime": "неизвестно",
      "coordinates": [
        37.72792100000004,
        47.958358000010946
      ]
    },
    {
      "name": "Донецк, ул. Очаковская,24",
      "address": "Донецк, ул. Очаковская,24",
      "link": "https://ozon.ru/point/1258316",
      "operationTime": "неизвестно",
      "coordinates": [
        37.793668999999966,
        48.042083000010756
      ]
    },
    {
      "name": "Горловка, ул. Уманская 33",
      "address": "Горловка, ул. Уманская 33",
      "link": "https://ozon.ru/point/1258317",
      "operationTime": "неизвестно",
      "coordinates": [
        38.039394,
        48.31702800000993
      ]
    },
    {
      "name": "г. Ровеньки, Ленина 19",
      "address": "г. Ровеньки, Ленина 19",
      "link": "https://ozon.ru/point/1258322",
      "operationTime": "неизвестно",
      "coordinates": [
        39.368370999999996,
        48.08940400001059
      ]
    },
    {
      "name": "Пгт. Беловодск, Политотделовская 48",
      "address": "Пгт. Беловодск, Политотделовская 48",
      "link": "https://ozon.ru/point/1255361",
      "operationTime": "неизвестно",
      "coordinates": [
        39.59488099999999,
        49.21894400000736
      ]
    },
    {
      "name": "г. Торез, ул. Ильича 22",
      "address": "г. Торез, ул. Ильича 22",
      "link": "https://ozon.ru/point/1255354",
      "operationTime": "неизвестно",
      "coordinates": [
        38.62804200000002,
        48.02304300001076
      ]
    },
    {
      "name": "г. Торез, пр-кт Гагарина 25",
      "address": "г. Торез, пр-кт Гагарина 25",
      "link": "https://ozon.ru/point/1255363",
      "operationTime": "неизвестно",
      "coordinates": [
        38.61613099999998,
        48.02397100001079
      ]
    },
    {
      "name": "г. Мариуполь, квартал Азовье, 1",
      "address": "г. Мариуполь, квартал Азовье, 1",
      "link": "https://ozon.ru/point/1255473",
      "operationTime": "неизвестно",
      "coordinates": [
        37.479150999999995,
        47.065629000013544
      ]
    },
    {
      "name": "г. Макеевка, ул. Монтажная, 48/11",
      "address": "г. Макеевка, ул. Монтажная, 48/11",
      "link": "https://ozon.ru/point/1255364",
      "operationTime": "неизвестно",
      "coordinates": [
        37.98392299999998,
        48.08506500001061
      ]
    },
    {
      "name": "г. Макеевка, ул. Клубная,7",
      "address": "г. Макеевка, ул. Клубная,7",
      "link": "https://ozon.ru/point/1255463",
      "operationTime": "неизвестно",
      "coordinates": [
        37.90053300000002,
        48.0187400000108
      ]
    },
    {
      "name": "г. Макеевка, ул. Героев Сталинграда, 19",
      "address": "г. Макеевка, ул. Героев Сталинграда, 19",
      "link": "https://ozon.ru/point/1255360",
      "operationTime": "неизвестно",
      "coordinates": [
        37.89819699999998,
        48.06740200001064
      ]
    },
    {
      "name": "г. Луганск, улица 50-летия образования СССР, 22А",
      "address": "г. Луганск, улица 50-летия образования СССР, 22А",
      "link": "https://ozon.ru/point/1255466",
      "operationTime": "неизвестно",
      "coordinates": [
        39.323724999999975,
        48.568209000009226
      ]
    },
    {
      "name": "г. Донецк, ул. Бессарабская, 19",
      "address": "г. Донецк, ул. Бессарабская, 19",
      "link": "https://ozon.ru/point/1255353",
      "operationTime": "неизвестно",
      "coordinates": [
        37.85037099999997,
        47.98123400001092
      ]
    },
    {
      "name": "г. Луганск, кв. Обороны Луганска 3",
      "address": "г. Луганск, кв. Обороны Луганска 3",
      "link": "https://ozon.ru/point/1255469",
      "operationTime": "неизвестно",
      "coordinates": [
        39.35871399999998,
        48.51410500000936
      ]
    },
    {
      "name": "г. Бердянск, ул. Лютеранская, 36",
      "address": "г. Бердянск, ул. Лютеранская, 36",
      "link": "https://ozon.ru/point/1255503",
      "operationTime": "неизвестно",
      "coordinates": [
        36.795299,
        46.75158600001449
      ]
    },
    {
      "name": "г. Антрацит, ул. 9 мая 2а",
      "address": "г. Антрацит, ул. 9 мая 2а",
      "link": "https://ozon.ru/point/565085",
      "operationTime": "неизвестно",
      "coordinates": [
        39.09443000000001,
        48.10811300001053
      ]
    },
    {
      "name": "г. Луганск, ул.Кирова,50Г",
      "address": "г. Луганск, ул.Кирова,50Г",
      "link": "https://ozon.ru/point/1255461",
      "operationTime": "неизвестно",
      "coordinates": [
        39.281970999999984,
        48.57279900000919
      ]
    },
    {
      "name": "г. Старобельск, ул. Пролетарская (Мира), 6",
      "address": "г. Старобельск, ул. Пролетарская (Мира), 6",
      "link": "https://ozon.ru/point/1243372",
      "operationTime": "неизвестно",
      "coordinates": [
        38.898759,
        49.282972000007184
      ]
    },
    {
      "name": "г Старобельск, ул. Октябрьская( Гимнастическая), 49",
      "address": "г Старобельск, ул. Октябрьская( Гимнастическая), 49",
      "link": "https://ozon.ru/point/1244313",
      "operationTime": "неизвестно",
      "coordinates": [
        38.90294499999999,
        49.280315000007164
      ]
    },
    {
      "name": "г. Донецк, ул. Прожекторная, 1А",
      "address": "г. Донецк, ул. Прожекторная, 1А",
      "link": "https://ozon.ru/point/1244309",
      "operationTime": "неизвестно",
      "coordinates": [
        37.910729,
        47.97634200001093
      ]
    },
    {
      "name": "Зугрэс-2 , ул. 60 лет Октября, дом 13а, 70кв",
      "address": "Зугрэс-2 , ул. 60 лет Октября, дом 13а, 70кв",
      "link": "https://ozon.ru/point/1243374",
      "operationTime": "неизвестно",
      "coordinates": [
        38.29702199999998,
        48.01927100001077
      ]
    },
    {
      "name": "г. Ясиноватая, ул. Ленинградская, 15",
      "address": "г. Ясиноватая, ул. Ленинградская, 15",
      "link": "https://ozon.ru/point/1244311",
      "operationTime": "неизвестно",
      "coordinates": [
        37.88509999999998,
        48.12961000001048
      ]
    },
    {
      "name": "г. Шахтерск, ул. Герцена, 7",
      "address": "г. Шахтерск, ул. Герцена, 7",
      "link": "https://ozon.ru/point/1244321",
      "operationTime": "неизвестно",
      "coordinates": [
        38.43774300000001,
        48.043209000010734
      ]
    },
    {
      "name": "г. Перевальск ул. Ленина, 34",
      "address": "г. Перевальск ул. Ленина, 34",
      "link": "https://ozon.ru/point/1244312",
      "operationTime": "неизвестно",
      "coordinates": [
        38.808738000000005,
        48.43540000000956
      ]
    },
    {
      "name": "г. Мариуполь ул. Белякова, 24",
      "address": "г. Мариуполь ул. Белякова, 24",
      "link": "https://ozon.ru/point/1244318",
      "operationTime": "неизвестно",
      "coordinates": [
        37.57550399999997,
        47.157988000013276
      ]
    },
    {
      "name": "г. Бердянск, ул. Верещагина, 12",
      "address": "г. Бердянск, ул. Верещагина, 12",
      "link": "https://ozon.ru/point/1244320",
      "operationTime": "неизвестно",
      "coordinates": [
        36.728851000000006,
        46.78983500001439
      ]
    },
    {
      "name": "г. Амвросиевка ул. Артема, 3",
      "address": "г. Амвросиевка ул. Артема, 3",
      "link": "https://ozon.ru/point/1243366",
      "operationTime": "неизвестно",
      "coordinates": [
        38.473667,
        47.80127800001143
      ]
    },
    {
      "name": "г. Мариуполь,пр. Никопольский (бывший пр.Ильича), 50",
      "address": "г. Мариуполь,пр. Никопольский (бывший пр.Ильича), 50",
      "link": "https://ozon.ru/point/1244308",
      "operationTime": "неизвестно",
      "coordinates": [
        37.590478999999995,
        47.13585700001339
      ]
    },
    {
      "name": "пгт. Мангуш, ул. Мира 107",
      "address": "пгт. Мангуш, ул. Мира 107",
      "link": "https://ozon.ru/point/1244315",
      "operationTime": "неизвестно",
      "coordinates": [
        37.319035000000014,
        47.05504500001359
      ]
    },
    {
      "name": "пгт Успенка ул. Советская 99",
      "address": "пгт Успенка ул. Советская 99",
      "link": "https://ozon.ru/point/1244257",
      "operationTime": "неизвестно",
      "coordinates": [
        39.16391400000001,
        48.390504000009706
      ]
    },
    {
      "name": "пгт. Черниговка Соборная улица, 441",
      "address": "пгт. Черниговка Соборная улица, 441",
      "link": "https://ozon.ru/point/1243356",
      "operationTime": "неизвестно",
      "coordinates": [
        36.230896999999985,
        47.18737300001321
      ]
    },
    {
      "name": "с. Зеленовка, ул. Итальянская, 102А",
      "address": "с. Зеленовка, ул. Итальянская, 102А",
      "link": "https://ozon.ru/point/1244316",
      "operationTime": "неизвестно",
      "coordinates": [
        36.22597099999999,
        46.97076100001386
      ]
    },
    {
      "name": "г. Донецк, ул. Днепродзержинская, 5",
      "address": "г. Донецк, ул. Днепродзержинская, 5",
      "link": "https://ozon.ru/point/1236298",
      "operationTime": "неизвестно",
      "coordinates": [
        37.77704100000001,
        47.96695600001096
      ]
    },
    {
      "name": "пгт Ялта, Мангушский р-н, ул.Матросова, д. 30",
      "address": "пгт Ялта, Мангушский р-н, ул.Матросова, д. 30",
      "link": "https://ozon.ru/point/1236177",
      "operationTime": "неизвестно",
      "coordinates": [
        37.282501,
        46.94335800001394
      ]
    },
    {
      "name": "пгт Еленовка ул. Ленина, 7",
      "address": "пгт Еленовка ул. Ленина, 7",
      "link": "https://ozon.ru/point/1236181",
      "operationTime": "неизвестно",
      "coordinates": [
        37.65291200000002,
        47.83330400001134
      ]
    },
    {
      "name": "г.Первомайск, ул Кима, 20",
      "address": "г.Первомайск, ул Кима, 20",
      "link": "https://ozon.ru/point/1236187",
      "operationTime": "неизвестно",
      "coordinates": [
        38.523388999999995,
        48.62868600000902
      ]
    },
    {
      "name": "г.Алмазная, ул Серго, 2А",
      "address": "г.Алмазная, ул Серго, 2А",
      "link": "https://ozon.ru/point/1236301",
      "operationTime": "неизвестно",
      "coordinates": [
        38.58097999999999,
        48.52171000000932
      ]
    },
    {
      "name": "г. Харцызск, микрорайон Юбилейный, 10",
      "address": "г. Харцызск, микрорайон Юбилейный, 10",
      "link": "https://ozon.ru/point/1236318",
      "operationTime": "неизвестно",
      "coordinates": [
        38.13807399999998,
        48.055413000010695
      ]
    },
    {
      "name": "г. Мелитополь, ул. Шмидта, 66",
      "address": "г. Мелитополь, ул. Шмидта, 66",
      "link": "https://ozon.ru/point/1236278",
      "operationTime": "неизвестно",
      "coordinates": [
        35.35356600000002,
        46.83880900001423
      ]
    },
    {
      "name": "г. Мелитополь, ул. Ивана Алексеева 10А",
      "address": "г. Мелитополь, ул. Ивана Алексеева 10А",
      "link": "https://ozon.ru/point/1236274",
      "operationTime": "неизвестно",
      "coordinates": [
        35.36275599999996,
        46.83544900001425
      ]
    },
    {
      "name": "г. Мелитополь, ул. Гоголя, 103",
      "address": "г. Мелитополь, ул. Гоголя, 103",
      "link": "https://ozon.ru/point/1236267",
      "operationTime": "неизвестно",
      "coordinates": [
        35.376075000000036,
        46.86200900001419
      ]
    },
    {
      "name": "г. Макеевка, ул. Коккинаки, 60",
      "address": "г. Макеевка, ул. Коккинаки, 60",
      "link": "https://ozon.ru/point/1236281",
      "operationTime": "неизвестно",
      "coordinates": [
        37.90597599999998,
        48.07179700001065
      ]
    },
    {
      "name": "Макеевка, Ул.Менделеева,31",
      "address": "Макеевка, Ул.Менделеева,31",
      "link": "https://ozon.ru/point/1236269",
      "operationTime": "неизвестно",
      "coordinates": [
        37.969226999999975,
        48.057063000010686
      ]
    },
    {
      "name": "г. Кировское, микрорайон Молодежный, 9",
      "address": "г. Кировское, микрорайон Молодежный, 9",
      "link": "https://ozon.ru/point/1236294",
      "operationTime": "неизвестно",
      "coordinates": [
        38.35619399999998,
        48.157658000010414
      ]
    },
    {
      "name": "г. Донецк, ул. Майская, 18Б",
      "address": "г. Донецк, ул. Майская, 18Б",
      "link": "https://ozon.ru/point/1236293",
      "operationTime": "неизвестно",
      "coordinates": [
        37.85537400000001,
        47.97800700001088
      ]
    },
    {
      "name": "г. Донецк, ул. Куйбышева, 252",
      "address": "г. Донецк, ул. Куйбышева, 252",
      "link": "https://ozon.ru/point/1236300",
      "operationTime": "неизвестно",
      "coordinates": [
        37.74728000000003,
        48.038149000010726
      ]
    },
    {
      "name": "г. Горловка, ул. Бессонова 13",
      "address": "г. Горловка, ул. Бессонова 13",
      "link": "https://ozon.ru/point/1236297",
      "operationTime": "неизвестно",
      "coordinates": [
        38.064113000000006,
        48.33488300000985
      ]
    },
    {
      "name": "г. Волноваха, ул. Ленина, д. 64",
      "address": "г. Волноваха, ул. Ленина, д. 64",
      "link": "https://ozon.ru/point/1236307",
      "operationTime": "неизвестно",
      "coordinates": [
        37.495424999999976,
        47.59927100001203
      ]
    },
    {
      "name": "г. Антрацит, ул. Коммунальная 37 а",
      "address": "г. Антрацит, ул. Коммунальная 37 а",
      "link": "https://ozon.ru/point/1236303",
      "operationTime": "неизвестно",
      "coordinates": [
        39.08675799999999,
        48.10595900001053
      ]
    },
    {
      "name": "г. Мариуполь, ул. Нахимова, 204",
      "address": "г. Мариуполь, ул. Нахимова, 204",
      "link": "https://ozon.ru/point/1233436",
      "operationTime": "неизвестно",
      "coordinates": [
        37.53826,
        47.09567800001349
      ]
    },
    {
      "name": "г. Донецк, ул. Степана Щипачева 33",
      "address": "г. Донецк, ул. Степана Щипачева 33",
      "link": "https://ozon.ru/point/1233442",
      "operationTime": "неизвестно",
      "coordinates": [
        37.601412,
        47.94191300001099
      ]
    },
    {
      "name": "с.Терпение ул. Таврическая, 16",
      "address": "с.Терпение ул. Таврическая, 16",
      "link": "https://ozon.ru/point/1233418",
      "operationTime": "неизвестно",
      "coordinates": [
        35.42697700000001,
        46.97412900001383
      ]
    },
    {
      "name": "с.Новобогдановка, ул.Шевченко, 33",
      "address": "с.Новобогдановка, ул.Шевченко, 33",
      "link": "https://ozon.ru/point/1233444",
      "operationTime": "неизвестно",
      "coordinates": [
        35.316689999999966,
        47.08100200001349
      ]
    },
    {
      "name": "с. Широкое, ул. Ладычука, 29",
      "address": "с. Широкое, ул. Ладычука, 29",
      "link": "https://ozon.ru/point/1233425",
      "operationTime": "неизвестно",
      "coordinates": [
        32.90595400000004,
        46.199600000016105
      ]
    },
    {
      "name": "с. Шелюги ул. Зои Космодемьянской, 13",
      "address": "с. Шелюги ул. Зои Космодемьянской, 13",
      "link": "https://ozon.ru/point/1233416",
      "operationTime": "неизвестно",
      "coordinates": [
        35.239822,
        46.55553700001508
      ]
    },
    {
      "name": "с. Виноградово ул. Ларионова, 3а",
      "address": "с. Виноградово ул. Ларионова, 3а",
      "link": "https://ozon.ru/point/1233403",
      "operationTime": "неизвестно",
      "coordinates": [
        32.936191000000015,
        46.37045200001561
      ]
    },
    {
      "name": "пгт. Кирилловка ул. Центральная, 2",
      "address": "пгт. Кирилловка ул. Центральная, 2",
      "link": "https://ozon.ru/point/1233411",
      "operationTime": "неизвестно",
      "coordinates": [
        35.37072400000002,
        46.37212500001559
      ]
    },
    {
      "name": "пгт Новониколаевка, ул. Мира, 11",
      "address": "пгт Новониколаевка, ул. Мира, 11",
      "link": "https://ozon.ru/point/1233400",
      "operationTime": "неизвестно",
      "coordinates": [
        32.73376199999999,
        46.22921500001602
      ]
    },
    {
      "name": "пгт Лазурное, ул. Металлургов, 8",
      "address": "пгт Лазурное, ул. Металлургов, 8",
      "link": "https://ozon.ru/point/1233420",
      "operationTime": "неизвестно",
      "coordinates": [
        32.52011799999998,
        46.08087300001645
      ]
    },
    {
      "name": "пгт Брилевка ул. Мелиораторов, 7",
      "address": "пгт Брилевка ул. Мелиораторов, 7",
      "link": "https://ozon.ru/point/1233422",
      "operationTime": "неизвестно",
      "coordinates": [
        33.143345,
        46.41981500001546
      ]
    },
    {
      "name": "Луганск, ул. Почтовая, д.22",
      "address": "Луганск, ул. Почтовая, д.22",
      "link": "https://ozon.ru/point/1233426",
      "operationTime": "неизвестно",
      "coordinates": [
        39.30222800000001,
        48.57799200000917
      ]
    },
    {
      "name": "Луганск, кв. Молодежный, д.6 ",
      "address": "Луганск, кв. Молодежный, д.6 ",
      "link": "https://ozon.ru/point/1233404",
      "operationTime": "неизвестно",
      "coordinates": [
        39.374857,
        48.57098700000918
      ]
    },
    {
      "name": "Луганск, кв. Заречный. д,12",
      "address": "Луганск, кв. Заречный. д,12",
      "link": "https://ozon.ru/point/1233440",
      "operationTime": "неизвестно",
      "coordinates": [
        39.26908899999999,
        48.528839000009306
      ]
    },
    {
      "name": "Луганск, ул. Суходольская, д.6",
      "address": "Луганск, ул. Суходольская, д.6",
      "link": "https://ozon.ru/point/1233401",
      "operationTime": "неизвестно",
      "coordinates": [
        39.397556999999985,
        48.58640800000914
      ]
    },
    {
      "name": "г.Горловка,ул.Ленина, 197",
      "address": "г.Горловка,ул.Ленина, 197",
      "link": "https://ozon.ru/point/1233430",
      "operationTime": "неизвестно",
      "coordinates": [
        37.988459200000015,
        48.312201800009916
      ]
    },
    {
      "name": "г. Шахтерск, ул. Крупской, 4г",
      "address": "г. Шахтерск, ул. Крупской, 4г",
      "link": "https://ozon.ru/point/1233405",
      "operationTime": "неизвестно",
      "coordinates": [
        38.483689,
        48.04374300001072
      ]
    },
    {
      "name": "г. Харцызск, ул. Маяковского, 44",
      "address": "г. Харцызск, ул. Маяковского, 44",
      "link": "https://ozon.ru/point/1233412",
      "operationTime": "неизвестно",
      "coordinates": [
        38.14029100000001,
        48.0518170000107
      ]
    },
    {
      "name": "г. Скадовск, ул. Гуманенко 10",
      "address": "г. Скадовск, ул. Гуманенко 10",
      "link": "https://ozon.ru/point/1233427",
      "operationTime": "неизвестно",
      "coordinates": [
        32.93635300000002,
        46.113745000016365
      ]
    },
    {
      "name": "г. Кировское, ул. Донецкая, 4",
      "address": "г. Кировское, ул. Донецкая, 4",
      "link": "https://ozon.ru/point/1233441",
      "operationTime": "неизвестно",
      "coordinates": [
        38.363110999999996,
        48.14870700001039
      ]
    },
    {
      "name": "г. Донецк, ул. Артема, 41",
      "address": "г. Донецк, ул. Артема, 41",
      "link": "https://ozon.ru/point/1233419",
      "operationTime": "неизвестно",
      "coordinates": [
        37.80504200000002,
        47.990069000010884
      ]
    },
    {
      "name": "г. Донецк, ул. Актюбинская, 5а",
      "address": "г. Донецк, ул. Актюбинская, 5а",
      "link": "https://ozon.ru/point/1233413",
      "operationTime": "неизвестно",
      "coordinates": [
        37.779979,
        47.95703100001096
      ]
    },
    {
      "name": "г. Донецк, пр-кт Павших Коммунаров, 96",
      "address": "г. Донецк, пр-кт Павших Коммунаров, 96",
      "link": "https://ozon.ru/point/1233432",
      "operationTime": "неизвестно",
      "coordinates": [
        37.83375200000001,
        47.99141300001087
      ]
    },
    {
      "name": "с. Новое (Новый), ул. Продольная, 1в ",
      "address": "с. Новое (Новый), ул. Продольная, 1в ",
      "link": "https://ozon.ru/point/1233439",
      "operationTime": "неизвестно",
      "coordinates": [
        35.27944600000001,
        46.78236300001439
      ]
    },
    {
      "name": "г. Мариуполь, ул. Олимпийская, 175",
      "address": "г. Мариуполь, ул. Олимпийская, 175",
      "link": "https://ozon.ru/point/1233402",
      "operationTime": "неизвестно",
      "coordinates": [
        37.68118200000001,
        47.1232400000134
      ]
    },
    {
      "name": "Мариуполь, Пашковского 14",
      "address": "Мариуполь, Пашковского 14",
      "link": "https://ozon.ru/point/1233435",
      "operationTime": "неизвестно",
      "coordinates": [
        37.63769499999998,
        47.109314000013455
      ]
    },
    {
      "name": "Макеевка, мкрн Калининсий, д. 4 пом. 148а",
      "address": "Макеевка, мкрн Калининсий, д. 4 пом. 148а",
      "link": "https://ozon.ru/point/1233424",
      "operationTime": "неизвестно",
      "coordinates": [
        37.88639299999999,
        48.03220300001074
      ]
    },
    {
      "name": "Снежное, ул. Советская, д. 73",
      "address": "Снежное, ул. Советская, д. 73",
      "link": "https://ozon.ru/point/1233421",
      "operationTime": "неизвестно",
      "coordinates": [
        38.76263699999997,
        48.0430650000107
      ]
    },
    {
      "name": "с. Вознесенка, ул. Мира, 205",
      "address": "с. Вознесенка, ул. Мира, 205",
      "link": "https://ozon.ru/point/1230983",
      "operationTime": "неизвестно",
      "coordinates": [
        35.455507000000004,
        46.86525300001418
      ]
    },
    {
      "name": "г. Бердянск, ул. Мазина, 19а",
      "address": "г. Бердянск, ул. Мазина, 19а",
      "link": "https://ozon.ru/point/1230958",
      "operationTime": "неизвестно",
      "coordinates": [
        36.79393400000002,
        46.749913000014494
      ]
    },
    {
      "name": "г. Донецк, ул. 60-летия СССР, 32",
      "address": "г. Донецк, ул. 60-летия СССР, 32",
      "link": "https://ozon.ru/point/1230959",
      "operationTime": "неизвестно",
      "coordinates": [
        37.742315000000026,
        48.00871900001083
      ]
    },
    {
      "name": "пгт. Мирное, ул. Олексенка (Победы), 14",
      "address": "пгт. Мирное, ул. Олексенка (Победы), 14",
      "link": "https://ozon.ru/point/1230982",
      "operationTime": "неизвестно",
      "coordinates": [
        35.44044199999995,
        46.950531000013896
      ]
    },
    {
      "name": "г. Макеевка, проспект 250-летия Донбасса, 2",
      "address": "г. Макеевка, проспект 250-летия Донбасса, 2",
      "link": "https://ozon.ru/point/1230965",
      "operationTime": "неизвестно",
      "coordinates": [
        37.961578000000024,
        48.03766000001071
      ]
    },
    {
      "name": "г. Мариуполь, бул. Шевченко, 295а",
      "address": "г. Мариуполь, бул. Шевченко, 295а",
      "link": "https://ozon.ru/point/1230962",
      "operationTime": "неизвестно",
      "coordinates": [
        37.52138099999999,
        47.11728000001343
      ]
    },
    {
      "name": "г. Мариуполь, Левый берег, Владимирская 23/53",
      "address": "г. Мариуполь, Левый берег, Владимирская 23/53",
      "link": "https://ozon.ru/point/1230993",
      "operationTime": "неизвестно",
      "coordinates": [
        37.64094699999999,
        47.10644300001347
      ]
    },
    {
      "name": "г. Мариуполь, ул. Азовстальская, 57",
      "address": "г. Мариуполь, ул. Азовстальская, 57",
      "link": "https://ozon.ru/point/1230963",
      "operationTime": "неизвестно",
      "coordinates": [
        37.64509700000001,
        47.10102100001349
      ]
    },
    {
      "name": "г. Мелитополь, проспект Богдана Хмельницкого, 15",
      "address": "г. Мелитополь, проспект Богдана Хмельницкого, 15",
      "link": "https://ozon.ru/point/1230988",
      "operationTime": "неизвестно",
      "coordinates": [
        35.373383,
        46.84411600001423
      ]
    },
    {
      "name": "г. Мелитополь, ул. Фрунзе, 264",
      "address": "г. Мелитополь, ул. Фрунзе, 264",
      "link": "https://ozon.ru/point/1230985",
      "operationTime": "неизвестно",
      "coordinates": [
        35.358480000000014,
        46.86763800001415
      ]
    },
    {
      "name": "г. Шахтерск, улица 50-летия СССР, 16",
      "address": "г. Шахтерск, улица 50-летия СССР, 16",
      "link": "https://ozon.ru/point/1230985",
      "operationTime": "неизвестно",
      "coordinates": [
        38.48284800000001,
        48.03794400001074
      ]
    },
    {
      "name": "пгт. Акимовка, ул. Ленина, 54",
      "address": "пгт. Акимовка, ул. Ленина, 54",
      "link": "https://ozon.ru/point/1230987",
      "operationTime": "неизвестно",
      "coordinates": [
        35.160438000000006,
        46.70087000001462
      ]
    },
    {
      "name": " пгт. Веселое ул. Московская улица, 21 ",
      "address": " пгт. Веселое ул. Московская улица, 21 ",
      "link": "https://ozon.ru/point/1230980",
      "operationTime": "неизвестно",
      "coordinates": [
        34.933459000000006,
        47.02132300001369
      ]
    },
    {
      "name": " пгт. Веселое ул. Пушкина, 29 ",
      "address": " пгт. Веселое ул. Пушкина, 29 ",
      "link": "https://ozon.ru/point/1230986",
      "operationTime": "неизвестно",
      "coordinates": [
        34.92198,
        47.01127800001376
      ]
    },
    {
      "name": "пгт. Нововасильевка, ул. Кооперативная, 65",
      "address": "пгт. Нововасильевка, ул. Кооперативная, 65",
      "link": "https://ozon.ru/point/1230981",
      "operationTime": "неизвестно",
      "coordinates": [
        36.782427,
        46.84995300001418
      ]
    },
    {
      "name": "пгт. Приазовское, ул. Горького, 101",
      "address": "пгт. Приазовское, ул. Горького, 101",
      "link": "https://ozon.ru/point/1230984",
      "operationTime": "неизвестно",
      "coordinates": [
        35.64378500000001,
        46.730484000014556
      ]
    },
    {
      "name": "пос. Мирный, Варшавская 26",
      "address": "пос. Мирный, Варшавская 26",
      "link": "https://ozon.ru/point/1230858",
      "operationTime": "неизвестно",
      "coordinates": [
        37.577651,
        47.17225600001328
      ]
    },
    {
      "name": "с. Ботиево, Тараса Шевченко, 59 ",
      "address": "с. Ботиево, Тараса Шевченко, 59 ",
      "link": "https://ozon.ru/point/1231128",
      "operationTime": "неизвестно",
      "coordinates": [
        35.84157600000001,
        46.682061000014706
      ]
    },
    {
      "name": "Пгт. Петровское , ул. Ленина, д. 40",
      "address": "Пгт. Петровское , ул. Ленина, д. 40",
      "link": "https://ozon.ru/point/1229564",
      "operationTime": "неизвестно",
      "coordinates": [
        38.878148,
        48.29189500000998
      ]
    },
    {
      "name": "Ровеньки, квартал Шахтерский, д. 4",
      "address": "Ровеньки, квартал Шахтерский, д. 4",
      "link": "https://ozon.ru/point/1229561",
      "operationTime": "неизвестно",
      "coordinates": [
        39.402336000000005,
        48.07061100001064
      ]
    },
    {
      "name": "г. Донецк, ул. Щорса, 38",
      "address": "г. Донецк, ул. Щорса, 38",
      "link": "https://ozon.ru/point/1229562",
      "operationTime": "неизвестно",
      "coordinates": [
        37.795303999999966,
        48.011411000010774
      ]
    },
    {
      "name": "г. Мариуполь, ул. Михаила Грушевского, 15А ",
      "address": "г. Мариуполь, ул. Михаила Грушевского, 15А ",
      "link": "https://ozon.ru/point/1229565",
      "operationTime": "неизвестно",
      "coordinates": [
        37.513978999999985,
        47.12059100001342
      ]
    },
    {
      "name": "пгт Ирмино, ул. Кириченко, д. 17 ",
      "address": "пгт Ирмино, ул. Кириченко, д. 17 ",
      "link": "https://ozon.ru/point/1229371",
      "operationTime": "неизвестно",
      "coordinates": [
        38.589403000000026,
        48.60183700000909
      ]
    },
    {
      "name": "г. Донецк, Щетинина 23а",
      "address": "г. Донецк, Щетинина 23а",
      "link": "https://ozon.ru/point/1229358",
      "operationTime": "неизвестно",
      "coordinates": [
        37.92094199999999,
        47.980486000010906
      ]
    },
    {
      "name": "Ждановка, рынок ",
      "address": "Ждановка, рынок ",
      "link": "https://ozon.ru/point/1229361",
      "operationTime": "неизвестно",
      "coordinates": [
        38.253381,
        48.15502700001043
      ]
    },
    {
      "name": "Донецк, улица Куйбышева, 246 А",
      "address": "Донецк, улица Куйбышева, 246 А",
      "link": "https://ozon.ru/point/1224454",
      "operationTime": "неизвестно",
      "coordinates": [
        37.746795999999996,
        48.03688300001074
      ]
    },
    {
      "name": "Мелитополь, б-р 30-летия Победы, д. 40",
      "address": "Мелитополь, б-р 30-летия Победы, д. 40",
      "link": "https://ozon.ru/point/1230955",
      "operationTime": "неизвестно",
      "coordinates": [
        35.374255000000005,
        46.87254200001414
      ]
    },
    {
      "name": "г. Горловка, ул. Жукова, д. 6",
      "address": "г. Горловка, ул. Жукова, д. 6",
      "link": "https://ozon.ru/point/1230954",
      "operationTime": "неизвестно",
      "coordinates": [
        37.970290999999996,
        48.31812500000991
      ]
    },
    {
      "name": "г. Донецк, ул. 60-летия СССР, 24а",
      "address": "г. Донецк, ул. 60-летия СССР, 24а",
      "link": "https://ozon.ru/point/1230959",
      "operationTime": "неизвестно",
      "coordinates": [
        37.74231500000001,
        48.008719000010856
      ]
    },
    {
      "name": "г. Донецк, ул. Палладина, 22",
      "address": "г. Донецк, ул. Палладина, 22",
      "link": "https://ozon.ru/point/1230956",
      "operationTime": "неизвестно",
      "coordinates": [
        37.96610100000001,
        47.95568500001096
      ]
    },
    {
      "name": "г. Енакиево, ул. Ленина, д. 99",
      "address": "г. Енакиево, ул. Ленина, д. 99",
      "link": "https://ozon.ru/point/1230960",
      "operationTime": "неизвестно",
      "coordinates": [
        38.20718899999999,
        48.22271100001021
      ]
    },
    {
      "name": "г. Луганск, квартал Норинского, д. 1",
      "address": "г. Луганск, квартал Норинского, д. 1",
      "link": "https://ozon.ru/point/1230957",
      "operationTime": "неизвестно",
      "coordinates": [
        39.397206999999995,
        48.58091200000916
      ]
    },
    {
      "name": "г. Луганск, ул. Щербакова, 7В",
      "address": "г. Луганск, ул. Щербакова, 7В",
      "link": "https://ozon.ru/point/1230966",
      "operationTime": "неизвестно",
      "coordinates": [
        39.27660199999999,
        48.53961400000927
      ]
    },
    {
      "name": "пгт. Андреевка, пр-т Труда 23",
      "address": "пгт. Андреевка, пр-т Труда 23",
      "link": "https://ozon.ru/point/1230241",
      "operationTime": "неизвестно",
      "coordinates": [
        36.58230300000002,
        47.09733000001345
      ]
    },
    {
      "name": "Бердянск, Азовский 7",
      "address": "Бердянск, Азовский 7",
      "link": "https://ozon.ru/point/1230234",
      "operationTime": "неизвестно",
      "coordinates": [
        36.79067300000002,
        46.76002000001448
      ]
    },
    {
      "name": "Пгт. Кирилловка, ул. Центральная, д. 28",
      "address": "Пгт. Кирилловка, ул. Центральная, д. 28",
      "link": "https://ozon.ru/point/1229563",
      "operationTime": "неизвестно",
      "coordinates": [
        35.36954699999998,
        46.37402700001556
      ]
    },
    {
      "name": "Молочанск, ул. Вокзальная, д. 40",
      "address": "Молочанск, ул. Вокзальная, д. 40",
      "link": "https://ozon.ru/point/1229354",
      "operationTime": "неизвестно",
      "coordinates": [
        35.59924699999997,
        47.20706400001314
      ]
    },
    {
      "name": "Донецк, ул. Щетинина, д. 23",
      "address": "Донецк, ул. Щетинина, д. 23",
      "link": "https://ozon.ru/point/1229358",
      "operationTime": "неизвестно",
      "coordinates": [
        37.920941999999975,
        47.980486000010906
      ]
    },
    {
      "name": "Бердянск, Мелитопольское шоссе, 114 В",
      "address": "Бердянск, Мелитопольское шоссе, 114 В",
      "link": "https://ozon.ru/point/1229374",
      "operationTime": "неизвестно",
      "coordinates": [
        36.73203099999999,
        46.79106300001435
      ]
    },
    {
      "name": "Донецк, Горького 66",
      "address": "Донецк, Горького 66",
      "link": "https://ozon.ru/point/1224277",
      "operationTime": "неизвестно",
      "coordinates": [
        37.806416000000006,
        47.992637000010866
      ]
    },
    {
      "name": "Донецк, Ильича 91",
      "address": "Донецк, Ильича 91",
      "link": "https://ozon.ru/point/1224278",
      "operationTime": "неизвестно",
      "coordinates": [
        37.841773900000035,
        48.001083800010825
      ]
    },
    {
      "name": "Харцызск, ул. Краснознаменская, 59Б ( ТК Триумф)",
      "address": "Харцызск, ул. Краснознаменская, 59Б ( ТК Триумф)",
      "link": "https://ozon.ru/point/1224268",
      "operationTime": "неизвестно",
      "coordinates": [
        38.15574400000002,
        48.03818200001071
      ]
    },
    {
      "name": "Донецк, ул. Шутова 16 А",
      "address": "Донецк, ул. Шутова 16 А",
      "link": "https://ozon.ru/point/1224266",
      "operationTime": "неизвестно",
      "coordinates": [
        37.76649499999999,
        47.94204600001099
      ]
    },
    {
      "name": "Макеевка, Бульвар Горбачева 32-131",
      "address": "Макеевка, Бульвар Горбачева 32-131",
      "link": "https://ozon.ru/point/1224265",
      "operationTime": "неизвестно",
      "coordinates": [
        37.96343299999999,
        48.040450000010736
      ]
    },
    {
      "name": "Донецк, Ул.230 Стрелковой дивизии 22а",
      "address": "Донецк, Ул.230 Стрелковой дивизии 22а",
      "link": "https://ozon.ru/point/1224261",
      "operationTime": "неизвестно",
      "coordinates": [
        37.916083000000015,
        47.99050300001084
      ]
    },
    {
      "name": "Донецк, Мушкетовская 5",
      "address": "Донецк, Мушкетовская 5",
      "link": "https://ozon.ru/point/1217155",
      "operationTime": "неизвестно",
      "coordinates": [
        37.828002999999995,
        47.99113600001089
      ]
    },
    {
      "name": "Донецк, ул. Пролетарская 10а",
      "address": "Донецк, ул. Пролетарская 10а",
      "link": "https://ozon.ru/point/1217171",
      "operationTime": "неизвестно",
      "coordinates": [
        37.881542,
        47.96302200001095
      ]
    },
    {
      "name": "Краснодон, ул. Титова 5",
      "address": "Краснодон, ул. Титова 5",
      "link": "https://ozon.ru/point/1217145",
      "operationTime": "неизвестно",
      "coordinates": [
        39.747082999999996,
        48.28963800000999
      ]
    },
    {
      "name": "Донецк, ул. Октября 24",
      "address": "Донецк, ул. Октября 24",
      "link": "https://ozon.ru/point/1215819",
      "operationTime": "неизвестно",
      "coordinates": [
        37.882152999999995,
        47.95962500001095
      ]
    },
    {
      "name": "Макеевка, ул. Ленина 152",
      "address": "Макеевка, ул. Ленина 152",
      "link": "https://ozon.ru/point/1215795",
      "operationTime": "неизвестно",
      "coordinates": [
        37.95836600000001,
        48.08437300001061
      ]
    },
    {
      "name": "Комсомольское, ул. Горького, 69 Б",
      "address": "Комсомольское, ул. Горького, 69 Б",
      "link": "https://ozon.ru/point/1215789",
      "operationTime": "неизвестно",
      "coordinates": [
        38.07041299999999,
        47.66593400001179
      ]
    },
    {
      "name": "Донецк, ул. Северская, 23 а",
      "address": "Донецк, ул. Северская, 23 а",
      "link": "https://ozon.ru/point/1215785",
      "operationTime": "неизвестно",
      "coordinates": [
        37.81022500000001,
        48.03228700001076
      ]
    },
    {
      "name": "Ровное, ( Центральная) Ленина 24",
      "address": "Ровное, ( Центральная) Ленина 24",
      "link": "https://ozon.ru/point/1203795",
      "operationTime": "неизвестно",
      "coordinates": [
        34.760470000000026,
        46.35998100001562
      ]
    },
    {
      "name": "Станица Луганская, улица Центральная 24Б",
      "address": "Станица Луганская, улица Центральная 24Б",
      "link": "https://ozon.ru/point/1203806",
      "operationTime": "неизвестно",
      "coordinates": [
        39.49873399999999,
        48.64161200000899
      ]
    },
    {
      "name": "ПГТ Лутугино , ул. Ленина 114а",
      "address": "ПГТ Лутугино , ул. Ленина 114а",
      "link": "https://ozon.ru/point/1203798",
      "operationTime": "неизвестно",
      "coordinates": [
        39.19856199999997,
        48.400351000009685
      ]
    },
    {
      "name": "Нижние Серогозы, улица Независимости д. 12а",
      "address": "Нижние Серогозы, улица Независимости д. 12а",
      "link": "https://ozon.ru/point/1203599",
      "operationTime": "неизвестно",
      "coordinates": [
        34.37692799999999,
        46.85078800001419
      ]
    },
    {
      "name": "Луганск, улица Черноморская 2В",
      "address": "Луганск, улица Черноморская 2В",
      "link": "https://ozon.ru/point/1203796%20style=",
      "operationTime": "неизвестно",
      "coordinates": [
        39.26142599999994,
        48.5416420000093
      ]
    },
    {
      "name": "Стаханов, ул Фестивальная, 61",
      "address": "Стаханов, ул Фестивальная, 61",
      "link": "https://ozon.ru/point/1203797",
      "operationTime": "неизвестно",
      "coordinates": [
        38.66893399999997,
        48.584530000009174
      ]
    },
    {
      "name": "Алчевск , улица Ленина 13",
      "address": "Алчевск , улица Ленина 13",
      "link": "https://ozon.ru/point/1203575",
      "operationTime": "неизвестно",
      "coordinates": [
        38.81367000000004,
        48.46923900000949
      ]
    },
    {
      "name": "Мелитополь, улица Чайковского, 44",
      "address": "Мелитополь, улица Чайковского, 44",
      "link": "https://ozon.ru/point/701445",
      "operationTime": "неизвестно",
      "coordinates": [
        35.360958999999994,
        46.86686700001413
      ]
    },
    {
      "name": "Донецк, Щорсе 2а",
      "address": "Донецк, Щорсе 2а",
      "link": "https://ozon.ru/point/701438",
      "operationTime": "неизвестно",
      "coordinates": [
        37.79553799999999,
        47.999378000010836
      ]
    },
    {
      "name": "Донецк ул Розы Люксембург 84Б",
      "address": "Донецк ул Розы Люксембург 84Б",
      "link": "https://ozon.ru/point/701431",
      "operationTime": "неизвестно",
      "coordinates": [
        37.78754299999999,
        48.020886000010776
      ]
    },
    {
      "name": "Бердянск улица Химиков, 13",
      "address": "Бердянск улица Химиков, 13",
      "link": "https://ozon.ru/point/701428",
      "operationTime": "неизвестно",
      "coordinates": [
        36.77099099999998,
        46.76592700001447
      ]
    },
    {
      "name": "Мелитополь ул.М.Грушевского 17",
      "address": "Мелитополь ул.М.Грушевского 17",
      "link": "https://ozon.ru/point/624721",
      "operationTime": "неизвестно",
      "coordinates": [
        35.381907999999996,
        46.84546000001421
      ]
    },
    {
      "name": "Макеевка, ул. Репина 24б",
      "address": "Макеевка, ул. Репина 24б",
      "link": "https://ozon.ru/point/622515",
      "operationTime": "неизвестно",
      "coordinates": [
        37.983014,
        48.01569900001077
      ]
    },
    {
      "name": "Макеевка, ул. Кронштадская 69",
      "address": "Макеевка, ул. Кронштадская 69",
      "link": "https://ozon.ru/point/622517",
      "operationTime": "неизвестно",
      "coordinates": [
        37.859363000000045,
        48.03608900001072
      ]
    },
    {
      "name": "Донецк, Раздольная 34б",
      "address": "Донецк, Раздольная 34б",
      "link": "https://ozon.ru/point/620819",
      "operationTime": "неизвестно",
      "coordinates": [
        37.91486999999999,
        47.9743760000109
      ]
    },
    {
      "name": "Донецк, Артёма 50а",
      "address": "Донецк, Артёма 50а",
      "link": "https://ozon.ru/point/620808",
      "operationTime": "неизвестно",
      "coordinates": [
        37.80412500000001,
        47.99325300001086
      ]
    },
    {
      "name": "Мариуполь, ул. Мамина Сибиряка, 47",
      "address": "Мариуполь, ул. Мамина Сибиряка, 47",
      "link": "https://ozon.ru/point/620809",
      "operationTime": "неизвестно",
      "coordinates": [
        37.60589399999998,
        47.150175000013334
      ]
    },
    {
      "name": "Донецк, пр. Ильича 84",
      "address": "Донецк, пр. Ильича 84",
      "link": "https://ozon.ru/point/620816",
      "operationTime": "неизвестно",
      "coordinates": [
        37.858608,
        48.00337000001084
      ]
    },
    {
      "name": "Г. Донецк, ул. Ивана Ткаченко, 121 А",
      "address": "Г. Донецк, ул. Ивана Ткаченко, 121 А",
      "link": "https://ozon.ru/point/565090",
      "operationTime": "неизвестно",
      "coordinates": [
        37.80150200000003,
        47.978170000010905
      ]
    },
    {
      "name": "г. Донецк, ул. Панфилова 118",
      "address": "г. Донецк, ул. Панфилова 118",
      "link": "https://ozon.ru/point/565085",
      "operationTime": "неизвестно",
      "coordinates": [
        37.76909100000001,
        48.00790900001082
      ]
    },
    {
      "name": "Луганск, улица Чапаева 59А",
      "address": "Луганск, улица Чапаева 59А",
      "link": "https://ozon.ru/point/569383",
      "operationTime": "неизвестно",
      "coordinates": [
        39.276185999999996,
        48.56419600000922
      ]
    },
    {
      "name": "Макеевка, ул. Кольцевая 25-1",
      "address": "Макеевка, ул. Кольцевая 25-1",
      "link": "https://ozon.ru/point/569386",
      "operationTime": "неизвестно",
      "coordinates": [
        37.90899500000002,
        48.06964800001062
      ]
    },
    {
      "name": "Мелитополь, ул. Красноармейская, 3",
      "address": "Мелитополь, ул. Красноармейская, 3",
      "link": "https://ozon.ru/point/569389",
      "operationTime": "неизвестно",
      "coordinates": [
        35.367239,
        46.83361800001422
      ]
    },
    {
      "name": "Приазовское, Горького, 99",
      "address": "Приазовское, Горького, 99",
      "link": "https://ozon.ru/point/569378",
      "operationTime": "неизвестно",
      "coordinates": [
        35.643192,
        46.730521000014534
      ]
    },
    {
      "name": "Торез, ул. Ленина 277",
      "address": "Торез, ул. Ленина 277",
      "link": "https://ozon.ru/point/56938",
      "operationTime": "неизвестно",
      "coordinates": [
        38.668250000000036,
        48.0117200000108
      ]
    },
    {
      "name": "Мариуполь, ул. Приазовская 47",
      "address": "Мариуполь, ул. Приазовская 47",
      "link": "https://ozon.ru/point/565133",
      "operationTime": "неизвестно",
      "coordinates": [
        37.612334999999995,
        47.15991800001332
      ]
    },
    {
      "name": "Донецк, бул. Шевченко, 77",
      "address": "Донецк, бул. Шевченко, 77",
      "link": "https://ozon.ru/point/536833",
      "operationTime": "неизвестно",
      "coordinates": [
        37.84923900000004,
        48.00993400001081
      ]
    },
    {
      "name": "Мариуполь, пр. Строителей 154",
      "address": "Мариуполь, пр. Строителей 154",
      "link": "https://ozon.ru/point/1230392",
      "operationTime": "неизвестно",
      "coordinates": [
        37.525287999999996,
        47.118531000013384
      ]
    },
    {
      "name": "Донецк, пл. Конституции, д.4",
      "address": "Донецк, пл. Конституции, д.4",
      "link": "https://ozon.ru/point/1230244",
      "operationTime": "неизвестно",
      "coordinates": [
        37.813279999999985,
        48.00238900001081
      ]
    },
    {
      "name": "г. Красный Луч, 3-й Микрорайон, д.36 ",
      "address": "г. Красный Луч, 3-й Микрорайон, д.36 ",
      "link": "https://ozon.ru/point/1229566",
      "operationTime": "неизвестно",
      "coordinates": [
        38.93538299999999,
        48.15941800001037
      ]
    },
    {
      "name": "Торез, м-он 1, торговые ряды в районе супер маркета Кураж",
      "address": "Торез, м-он 1, торговые ряды в районе супер маркета Кураж",
      "link": "https://ozon.ru/point/1229363",
      "operationTime": "неизвестно",
      "coordinates": [
        38.632453,
        48.04261900001071
      ]
    },
    {
      "name": "Харцызск, ул. Октябрьская, 34 Б",
      "address": "Харцызск, ул. Октябрьская, 34 Б",
      "link": "https://ozon.ru/point/1224267",
      "operationTime": "неизвестно",
      "coordinates": [
        38.15574400000001,
        48.036233000010746
      ]
    },
    {
      "name": "Донецк, Ул. Артема, 163",
      "address": "Донецк, Ул. Артема, 163",
      "link": "https://ozon.ru/point/1224466",
      "operationTime": "неизвестно",
      "coordinates": [
        37.79138700000002,
        48.029660000010765
      ]
    },
    {
      "name": "Макеевка, Бульвар Горбачева 32-131",
      "address": "Макеевка, Бульвар Горбачева 32-131",
      "link": "https://ozon.ru/point/1224265",
      "operationTime": "неизвестно",
      "coordinates": [
        37.963432999999995,
        48.04045000001072
      ]
    },
    {
      "name": "Донецк, ул. Петровского, 134б",
      "address": "Донецк, ул. Петровского, 134б",
      "link": "https://ozon.ru/point/122426",
      "operationTime": "неизвестно",
      "coordinates": [
        37.690731000000014,
        47.95039900001099
      ]
    },
    {
      "name": "Макеевка, ул. Островского 2-37",
      "address": "Макеевка, ул. Островского 2-37",
      "link": "https://ozon.ru/point/1217157",
      "operationTime": "неизвестно",
      "coordinates": [
        37.966936000000004,
        48.042956000010705
      ]
    },
    {
      "name": "Донецк, Артема 102",
      "address": "Донецк, Артема 102",
      "link": "https://ozon.ru/point/1224283",
      "operationTime": "неизвестно",
      "coordinates": [
        37.80090100000001,
        48.01906000001079
      ]
    },
    {
      "name": "Донецк, ул. Шутова 16 А",
      "address": "Донецк, ул. Шутова 16 А",
      "link": "https://ozon.ru/point/1224266",
      "operationTime": "неизвестно",
      "coordinates": [
        37.766495000000006,
        47.94204600001101
      ]
    },
    {
      "name": "Донецк, Ул.230 Стрелковой дивизии 22а",
      "address": "Донецк, Ул.230 Стрелковой дивизии 22а",
      "link": "https://ozon.ru/point/1224261",
      "operationTime": "неизвестно",
      "coordinates": [
        37.91608300000003,
        47.99050300001087
      ]
    },
    {
      "name": "Донецк, Мушкетовская 5",
      "address": "Донецк, Мушкетовская 5",
      "link": "https://ozon.ru/point/1217155",
      "operationTime": "неизвестно",
      "coordinates": [
        37.82800299999999,
        47.99113600001086
      ]
    },
    {
      "name": "Донецк, ул. Пролетарская 10а",
      "address": "Донецк, ул. Пролетарская 10а",
      "link": "https://ozon.ru/point/1217171",
      "operationTime": "неизвестно",
      "coordinates": [
        37.88154200000001,
        47.96302200001095
      ]
    },
    {
      "name": "Донецк, ул. Октября 24",
      "address": "Донецк, ул. Октября 24",
      "link": "https://ozon.ru/point/1215819",
      "operationTime": "неизвестно",
      "coordinates": [
        37.882153,
        47.959625000010966
      ]
    },
    {
      "name": "Макеевка, ул. Ленина 152",
      "address": "Макеевка, ул. Ленина 152",
      "link": "https://ozon.ru/point/1215795",
      "operationTime": "неизвестно",
      "coordinates": [
        37.958366000000005,
        48.08437300001061
      ]
    },
    {
      "name": "Комсомольское, ул. Горького, 69 Б",
      "address": "Комсомольское, ул. Горького, 69 Б",
      "link": "https://ozon.ru/point/1215789",
      "operationTime": "неизвестно",
      "coordinates": [
        38.070241288274865,
        47.6665778582804
      ]
    },
    {
      "name": "Донецк, ул. Северская, 23 а",
      "address": "Донецк, ул. Северская, 23 а",
      "link": "https://ozon.ru/point/1215785",
      "operationTime": "неизвестно",
      "coordinates": [
        37.81022500000002,
        48.03228700001074
      ]
    },
    {
      "name": "Макеевка, ул. Ленина 85",
      "address": "Макеевка, ул. Ленина 85",
      "link": "https://ozon.ru/point/1224455",
      "operationTime": "неизвестно",
      "coordinates": [
        37.96376500000001,
        48.054088000010665
      ]
    },
    {
      "name": "Горловка, ул. Интернациональная, 2Г",
      "address": "Горловка, ул. Интернациональная, 2Г",
      "link": "https://ozon.ru/point/1224463",
      "operationTime": "неизвестно",
      "coordinates": [
        38.040804999999985,
        48.30440200000998
      ]
    },
    {
      "name": "Юбилейный, квартал Шахтерский, район домов 9 и 11",
      "address": "Юбилейный, квартал Шахтерский, район домов 9 и 11",
      "link": "https://ozon.ru/point/1224462",
      "operationTime": "неизвестно",
      "coordinates": [
        39.18997399999999,
        48.55748200000922
      ]
    },
    {
      "name": "Кировск, ул. Борисова, д. 3, пом 81",
      "address": "Кировск, ул. Борисова, д. 3, пом 81",
      "link": "https://ozon.ru/point/1224465",
      "operationTime": "неизвестно",
      "coordinates": [
        38.64786799999998,
        48.63464700000901
      ]
    },
    {
      "name": "Луганск, ул. Артема, д. 99",
      "address": "Луганск, ул. Артема, д. 99",
      "link": "https://ozon.ru/point/1224263",
      "operationTime": "неизвестно",
      "coordinates": [
        39.319044000000034,
        48.59106800000913
      ]
    },
    {
      "name": "Алчевск, ул. Московская, д. 21",
      "address": "Алчевск, ул. Московская, д. 21",
      "link": "https://ozon.ru/point/1224271",
      "operationTime": "неизвестно",
      "coordinates": [
        38.80555799999999,
        48.4661680000095
      ]
    },
    {
      "name": "Донецк, ул. Университетская 107",
      "address": "Донецк, ул. Университетская 107",
      "link": "https://ozon.ru/point/1224270",
      "operationTime": "неизвестно",
      "coordinates": [
        37.78182000000002,
        48.0353110000107
      ]
    },
    {
      "name": "Снежное, ул. Крестьянская 43",
      "address": "Снежное, ул. Крестьянская 43",
      "link": "https://ozon.ru/point/1217165",
      "operationTime": "неизвестно",
      "coordinates": [
        38.762718,
        48.022760000010756
      ]
    },
    {
      "name": "Донецк, ул. Артема 275",
      "address": "Донецк, ул. Артема 275",
      "link": "https://ozon.ru/point/1217174",
      "operationTime": "неизвестно",
      "coordinates": [
        37.74913099999998,
        48.042661000010725
      ]
    },
    {
      "name": "Энергодар. ул. Украинская д.20",
      "address": "Энергодар. ул. Украинская д.20",
      "link": "https://ozon.ru/point/1222868",
      "operationTime": "неизвестно",
      "coordinates": [
        34.64933199999999,
        47.493694000012304
      ]
    },
    {
      "name": "Брянка ул.Московская 6",
      "address": "Брянка ул.Московская 6",
      "link": "https://ozon.ru/point/1217160",
      "operationTime": "неизвестно",
      "coordinates": [
        38.67919199999998,
        48.49947400000939
      ]
    },
    {
      "name": "Енакиево, ул. Коммунистическая 49",
      "address": "Енакиево, ул. Коммунистическая 49",
      "link": "https://ozon.ru/point/1215783",
      "operationTime": "неизвестно",
      "coordinates": [
        38.67919199999998,
        48.49947400000939
      ]
    },
    {
      "name": "Горловка, ул. Пушкинская 25",
      "address": "Горловка, ул. Пушкинская 25",
      "link": "https://ozon.ru/point/1215821",
      "operationTime": "неизвестно",
      "coordinates": [
        38.01618199999999,
        48.29976900000998
      ]
    },
    {
      "name": "Ясиноватая, Ул.Некрасова, 4а",
      "address": "Ясиноватая, Ул.Некрасова, 4а",
      "link": "https://ozon.ru/point/1215803",
      "operationTime": "неизвестно",
      "coordinates": [
        37.85492500000002,
        48.128095000010475
      ]
    },
    {
      "name": "Сивашское, Белинского 9",
      "address": "Сивашское, Белинского 9",
      "link": "https://ozon.ru/point/1205147",
      "operationTime": "неизвестно",
      "coordinates": [
        34.546134999999985,
        46.38327900001556
      ]
    },
    {
      "name": "Рубановка, Ивана Франка 12",
      "address": "Рубановка, Ивана Франка 12",
      "link": "https://ozon.ru/point/1203807",
      "operationTime": "неизвестно",
      "coordinates": [
        34.17227999999999,
        46.99378900001379
      ]
    },
    {
      "name": "Ровное, ( Центральная) Ленина 24",
      "address": "Ровное, ( Центральная) Ленина 24",
      "link": "https://ozon.ru/point/1203795",
      "operationTime": "неизвестно",
      "coordinates": [
        34.76047000000002,
        46.359981000015615
      ]
    },
    {
      "name": "Нижние Серогозы, Мира 13",
      "address": "Нижние Серогозы, Мира 13",
      "link": "https://ozon.ru/point/1203602",
      "operationTime": "неизвестно",
      "coordinates": [
        34.37733400000001,
        46.85270200001422
      ]
    },
    {
      "name": "Мирное, Шевченко 37",
      "address": "Мирное, Шевченко 37",
      "link": "https://ozon.ru/point/1203801",
      "operationTime": "неизвестно",
      "coordinates": [
        33.46412200000003,
        46.25106400001595
      ]
    },
    {
      "name": "Красное, Садовая 61 (Кобзаря 3)",
      "address": "Красное, Садовая 61 (Кобзаря 3)",
      "link": "https://ozon.ru/point/1203799",
      "operationTime": "неизвестно",
      "coordinates": [
        32.76512799999998,
        46.1306870000163
      ]
    },
    {
      "name": "Ивановка, Соборная 3",
      "address": "Ивановка, Соборная 3",
      "link": "https://ozon.ru/point/1203609",
      "operationTime": "неизвестно",
      "coordinates": [
        34.54904200000001,
        46.7128840000146
      ]
    },
    {
      "name": "Громовка, ул. Власенко (Ленина), 2",
      "address": "Громовка, ул. Власенко (Ленина), 2",
      "link": "https://ozon.ru/point/1203585",
      "operationTime": "неизвестно",
      "coordinates": [
        34.09967680000001,
        46.31154500001578
      ]
    },
    {
      "name": "Стаханов, Богдана Хмельницкого 4",
      "address": "Стаханов, Богдана Хмельницкого 4",
      "link": "https://ozon.ru/point/1205149",
      "operationTime": "неизвестно",
      "coordinates": [
        38.643753999999994,
        48.567720000009196
      ]
    },
    {
      "name": "Ровеньки, Энгельса 9",
      "address": "Ровеньки, Энгельса 9",
      "link": "https://ozon.ru/point/1205163",
      "operationTime": "неизвестно",
      "coordinates": [
        39.360412000000025,
        48.088568000010554
      ]
    },
    {
      "name": "Бердянск, Военный городок 10а",
      "address": "Бердянск, Военный городок 10а",
      "link": "https://ozon.ru/point/1205176",
      "operationTime": "неизвестно",
      "coordinates": [
        36.790907,
        46.7891750000144
      ]
    },
    {
      "name": "Новотроицкое, улица Белошкуры д.12",
      "address": "Новотроицкое, улица Белошкуры д.12",
      "link": "https://ozon.ru/point/1203802",
      "operationTime": "неизвестно",
      "coordinates": [
        34.330552,
        46.353048000015654
      ]
    },
    {
      "name": "Ивановка, улица Щорса (Соборная) д.9",
      "address": "Ивановка, улица Щорса (Соборная) д.9",
      "link": "https://ozon.ru/point/1203805",
      "operationTime": "неизвестно",
      "coordinates": [
        34.549042,
        46.712884000014625
      ]
    },
    {
      "name": "Бердянск,ул Итальянская 55",
      "address": "Бердянск,ул Итальянская 55",
      "link": "https://ozon.ru/point/1203613",
      "operationTime": "неизвестно",
      "coordinates": [
        36.78776300000001,
        46.75679700001448
      ]
    },
    {
      "name": "Тельмановский р-н с. Гранитное, Бейды 21а",
      "address": "Тельмановский р-н с. Гранитное, Бейды 21а",
      "link": "https://ozon.ru/point/1205158",
      "operationTime": "неизвестно",
      "coordinates": [
        36.78776300000001,
        46.75679700001448
      ]
    },
    {
      "name": "Суходольск, Ленина 15",
      "address": "Суходольск, Ленина 15",
      "link": "https://ozon.ru/point/1205170",
      "operationTime": "неизвестно",
      "coordinates": [
        39.733689000000005,
        48.350809000009825
      ]
    },
    {
      "name": "Новоазовск, Советская 20",
      "address": "Новоазовск, Советская 20",
      "link": "https://ozon.ru/point/1205177",
      "operationTime": "неизвестно",
      "coordinates": [
        38.093787,
        47.110718000013435
      ]
    },
    {
      "name": "ПГТ Зимогорье , улица Мира(Победы) 8",
      "address": "ПГТ Зимогорье , улица Мира(Победы) 8",
      "link": "https://ozon.ru/point/1203804",
      "operationTime": "неизвестно",
      "coordinates": [
        38.94887600000001,
        48.57879000000916
      ]
    },
    {
      "name": "Луганск, улица Оборонная 3/68\\n",
      "address": "Луганск, улица Оборонная 3/68\\n",
      "link": "https://ozon.ru/point/1203803",
      "operationTime": "неизвестно",
      "coordinates": [
        39.31527100000001,
        48.563857000009186
      ]
    },
    {
      "name": "Красный Луч, 1-й Микрорайон 2\\n",
      "address": "Красный Луч, 1-й Микрорайон 2\\n",
      "link": "https://ozon.ru/point/1203577",
      "operationTime": "неизвестно",
      "coordinates": [
        38.926085000000015,
        48.14962000001041
      ]
    },
    {
      "name": "Антрацит , Вокзальная 10 В",
      "address": "Антрацит , Вокзальная 10 В",
      "link": "https://ozon.ru/point/1203800",
      "operationTime": "неизвестно",
      "coordinates": [
        39.085869000000024,
        48.10970700001051
      ]
    },
    {
      "name": "Дебальцево, ул.346-й Дебальцевской Стрелковой Дивизии 5",
      "address": "Дебальцево, ул.346-й Дебальцевской Стрелковой Дивизии 5",
      "link": "https://ozon.ru/point/1161398",
      "operationTime": "неизвестно",
      "coordinates": [
        38.399960000000014,
        48.336161000009874
      ]
    },
    {
      "name": "Приморское,ул.Соборная 62Г",
      "address": "Приморское,ул.Соборная 62Г",
      "link": "https://ozon.ru/point/929125",
      "operationTime": "неизвестно",
      "coordinates": [
        33.02678400000001,
        46.17917100001613
      ]
    },
    {
      "name": "Железный Порт, ул.Школьная 54",
      "address": "Железный Порт, ул.Школьная 54",
      "link": "https://ozon.ru/point/929126",
      "operationTime": "неизвестно",
      "coordinates": [
        32.28806499999999,
        46.12157900001633
      ]
    },
    {
      "name": "Геническая горка, ул.Азовская 38",
      "address": "Геническая горка, ул.Азовская 38",
      "link": "https://ozon.ru/point/929128",
      "operationTime": "неизвестно",
      "coordinates": [
        34.83003699999998,
        46.08284200001644
      ]
    },
    {
      "name": "Геническ - 2, ул.Дружбы народов 64",
      "address": "Геническ - 2, ул.Дружбы народов 64",
      "link": "https://ozon.ru/point/929134",
      "operationTime": "неизвестно",
      "coordinates": [
        34.811172,
        46.17255100001618
      ]
    },
    {
      "name": "Аскания-Нова, ул.Соборная(Красноармейская) 22",
      "address": "Аскания-Нова, ул.Соборная(Красноармейская) 22",
      "link": "https://ozon.ru/point/929133",
      "operationTime": "неизвестно",
      "coordinates": [
        33.86935199999997,
        46.454910000015346
      ]
    },
    {
      "name": "Антоновка, ул.Соборная 6Г",
      "address": "Антоновка, ул.Соборная 6Г",
      "link": "https://ozon.ru/point/929130",
      "operationTime": "неизвестно",
      "coordinates": [
        32.947915999999985,
        46.14239300001627
      ]
    },
    {
      "name": "Мелитополь,ул.Брив-ла-Гайард 13",
      "address": "Мелитополь,ул.Брив-ла-Гайард 13",
      "link": "https://ozon.ru/point/804593",
      "operationTime": "неизвестно",
      "coordinates": [
        35.387657000000026,
        46.870416000014146
      ]
    },
    {
      "name": "Акимовка, ул. Молодых Патриотов, 10/5",
      "address": "Акимовка, ул. Молодых Патриотов, 10/5",
      "link": "https://ozon.ru/point/804575",
      "operationTime": "неизвестно",
      "coordinates": [
        35.16323999999997,
        46.701111000014635
      ]
    },
    {
      "name": "Геническ, ул.Центральная 2",
      "address": "Геническ, ул.Центральная 2",
      "link": "https://ozon.ru/point/804623",
      "operationTime": "неизвестно",
      "coordinates": [
        34.81094800000001,
        46.16651800001619
      ]
    },
    {
      "name": "Каланчак, ул.Херсонская 16 ",
      "address": "Каланчак, ул.Херсонская 16 ",
      "link": "https://ozon.ru/point/804614",
      "operationTime": "неизвестно",
      "coordinates": [
        34.81094800000001,
        46.16651800001619
      ]
    },
    {
      "name": "Скадовск, ул.Гагарина 59",
      "address": "Скадовск, ул.Гагарина 59",
      "link": "https://ozon.ru/point/804609",
      "operationTime": "неизвестно",
      "coordinates": [
        32.90729199999998,
        46.11324500001638
      ]
    },
    {
      "name": "Новотроицкое, ул.Соборная 94 ",
      "address": "Новотроицкое, ул.Соборная 94 ",
      "link": "https://ozon.ru/point/804569",
      "operationTime": "неизвестно",
      "coordinates": [
        34.32873199999999,
        46.350077000015666
      ]
    },
    {
      "name": "Чаплынка, ул.Грушевского 12",
      "address": "Чаплынка, ул.Грушевского 12",
      "link": "https://ozon.ru/point/804561",
      "operationTime": "неизвестно",
      "coordinates": [
        33.53687599999998,
        46.37376000001559
      ]
    },
    {
      "name": "Геническ. Проспект Мира 87",
      "address": "Геническ. Проспект Мира 87",
      "link": "https://ozon.ru/point/565080",
      "operationTime": "неизвестно",
      "coordinates": [
        34.81339100000003,
        46.173364000016164
      ]
    },
    {
      "name": "Свердловск , кВ 60лет ссср 23 дом 1",
      "address": "Свердловск , кВ 60лет ссср 23 дом 1",
      "link": "https://ozon.ru/point/804584",
      "operationTime": "неизвестно",
      "coordinates": [
        39.67711300000001,
        48.07622800001062
      ]
    },
    {
      "name": "Луганск, Мирный 2В",
      "address": "Луганск, Мирный 2В",
      "link": "https://ozon.ru/point/804615",
      "operationTime": "неизвестно",
      "coordinates": [
        39.26955599999997,
        48.52506800000931
      ]
    },
    {
      "name": "Стаханов, ул Олимпийская, дом 15",
      "address": "Стаханов, ул Олимпийская, дом 15",
      "link": "https://ozon.ru/point/804607",
      "operationTime": "неизвестно",
      "coordinates": [
        38.61791800000001,
        48.53221000000928
      ]
    },
    {
      "name": "Свердловск,ул.Энгельса 52",
      "address": "Свердловск,ул.Энгельса 52",
      "link": "https://ozon.ru/point/804588",
      "operationTime": "неизвестно",
      "coordinates": [
        39.654664000000004,
        48.07503600001062
      ]
    },
    {
      "name": "Горловка, Минская 61",
      "address": "Горловка, Минская 61",
      "link": "https://ozon.ru/point/549331",
      "operationTime": "неизвестно",
      "coordinates": [
        38.02609000000001,
        48.3248340000099
      ]
    },
    {
      "name": "Донецк, Аристова 20",
      "address": "Донецк, Аристова 20",
      "link": "https://ozon.ru/point/549325",
      "operationTime": "неизвестно",
      "coordinates": [
        37.78016699999997,
        48.05935100001065
      ]
    },
    {
      "name": "Донецк, Первомайская 19",
      "address": "Донецк, Первомайская 19",
      "link": "https://ozon.ru/point/549338",
      "operationTime": "неизвестно",
      "coordinates": [
        37.799239000000014,
        47.98754200001088
      ]
    },
    {
      "name": "Донецк, Проспект Гринкевича 9",
      "address": "Донецк, Проспект Гринкевича 9",
      "link": "https://ozon.ru/point/549337",
      "operationTime": "неизвестно",
      "coordinates": [
        37.800487000000004,
        48.00174200001084
      ]
    },
    {
      "name": "Донецк, Шевченко 27",
      "address": "Донецк, Шевченко 27",
      "link": "https://ozon.ru/point/549324",
      "operationTime": "неизвестно",
      "coordinates": [
        37.82925999999999,
        48.00880100001082
      ]
    },
    {
      "name": "Луганск, Ватутина 18",
      "address": "Луганск, Ватутина 18",
      "link": "https://ozon.ru/point/549315",
      "operationTime": "неизвестно",
      "coordinates": [
        39.382025,
        48.567601000009184
      ]
    },
    {
      "name": "Луганск, Оборонная 18",
      "address": "Луганск, Оборонная 18",
      "link": "https://ozon.ru/point/549252",
      "operationTime": "неизвестно",
      "coordinates": [
        39.325404000000006,
        48.55289600000921
      ]
    },
    {
      "name": "с. Азовское ул. Центральная 95 а",
      "address": "с. Азовское ул. Центральная 95 а",
      "link": "https://ozon.ru/point/547803",
      "operationTime": "неизвестно",
      "coordinates": [
        36.67775499999998,
        46.80266100001434
      ]
    },
    {
      "name": "Донецк, улица Газеты Комсомолец Донбасса 21",
      "address": "Донецк, улица Газеты Комсомолец Донбасса 21",
      "link": "https://ozon.ru/point/547815",
      "operationTime": "неизвестно",
      "coordinates": [
        36.67775499999998,
        46.80266100001434
      ]
    },
    {
      "name": "Донецк, ул Петровского 231 Б ",
      "address": "Донецк, ул Петровского 231 Б ",
      "link": "https://ozon.ru/point/547809",
      "operationTime": "неизвестно",
      "coordinates": [
        37.61074499999999,
        47.944665000011014
      ]
    },
    {
      "name": "Донецк, пр. Дзержинского, д. 69Б",
      "address": "Донецк, пр. Дзержинского, д. 69Б",
      "link": "https://ozon.ru/point/547816",
      "operationTime": "неизвестно",
      "coordinates": [
        37.83913299999998,
        47.99781700001085
      ]
    },
    {
      "name": "Горловка, ул. Нестерова 117",
      "address": "Горловка, ул. Нестерова 117",
      "link": "https://ozon.ru/point/547819",
      "operationTime": "неизвестно",
      "coordinates": [
        38.01240899999997,
        48.29341500000998
      ]
    },
    {
      "name": "Бердянск Ул Университетская 16",
      "address": "Бердянск Ул Университетская 16",
      "link": "https://ozon.ru/point/547801",
      "operationTime": "неизвестно",
      "coordinates": [
        36.787960000000005,
        46.754673000014485
      ]
    },
    {
      "name": "Мариуполь Ул.Седьмой проезд 8а",
      "address": "Мариуполь Ул.Седьмой проезд 8а",
      "link": "https://ozon.ru/point/544415",
      "operationTime": "неизвестно",
      "coordinates": [
        37.56359299999998,
        47.11575900001341
      ]
    },
    {
      "name": "Мариуполь Пос.Сартана ул.Партизанская 25",
      "address": "Мариуполь Пос.Сартана ул.Партизанская 25",
      "link": "https://ozon.ru/point/544431",
      "operationTime": "неизвестно",
      "coordinates": [
        37.69368699999998,
        47.17424700001324
      ]
    },
    {
      "name": "Кирова 50/1 ТЦ Феникс, первый этаж",
      "address": "Кирова 50/1 ТЦ Феникс, первый этаж",
      "link": "https://ozon.ru/point/544417",
      "operationTime": "неизвестно",
      "coordinates": [
        35.36271499999997,
        46.843852000014216
      ]
    },
    {
      "name": "г.Мелитополь Ул. Ивана Алексеева, 10А",
      "address": "г.Мелитополь Ул. Ивана Алексеева, 10А",
      "link": "https://ozon.ru/point/544427",
      "operationTime": "неизвестно",
      "coordinates": [
        35.36331299999997,
        46.83944400001425
      ]
    },
    {
      "name": "Мелитополь, Осипенко 98 ",
      "address": "Мелитополь, Осипенко 98 ",
      "link": "https://ozon.ru/point/544430",
      "operationTime": "неизвестно",
      "coordinates": [
        35.375009,
        46.864409000014184
      ]
    },
    {
      "name": "Волноваха, Ленина 145",
      "address": "Волноваха, Ленина 145",
      "link": "https://ozon.ru/point/544421",
      "operationTime": "неизвестно",
      "coordinates": [
        37.490227,
        47.61583500001195
      ]
    },
    {
      "name": "Луганск Победоносная 15 А",
      "address": "Луганск Победоносная 15 А",
      "link": "https://ozon.ru/point/544418",
      "operationTime": "неизвестно",
      "coordinates": [
        39.272242000000006,
        48.53061700000931
      ]
    },
    {
      "name": "Луганск, Королёва, 78 ",
      "address": "Луганск, Королёва, 78 ",
      "link": "https://ozon.ru/point/545540",
      "operationTime": "неизвестно",
      "coordinates": [
        39.395257000000015,
        48.56584800000918
      ]
    },
    {
      "name": "Приморск, Дружбы 15 Б",
      "address": "Приморск, Дружбы 15 Б",
      "link": "https://ozon.ru/point/543418",
      "operationTime": "неизвестно",
      "coordinates": [
        36.347516,
        46.735388000014545
      ]
    },
    {
      "name": "Мелитополь, ул. Богдана Хмельницкого,89",
      "address": "Мелитополь, ул. Богдана Хмельницкого,89",
      "link": "https://ozon.ru/point/543415",
      "operationTime": "неизвестно",
      "coordinates": [
        35.35715100000001,
        46.827151000014254
      ]
    },
    {
      "name": "Макеевка, Горняцкий район ул. Кирова 14а",
      "address": "Макеевка, Горняцкий район ул. Кирова 14а",
      "link": "https://ozon.ru/point/543417",
      "operationTime": "неизвестно",
      "coordinates": [
        38.03163300000001,
        47.99723800001087
      ]
    },
    {
      "name": "Луганск, ул. Демехина,23",
      "address": "Луганск, ул. Демехина,23",
      "link": "https://ozon.ru/point/543409",
      "operationTime": "неизвестно",
      "coordinates": [
        39.30424000000001,
        48.571625000009185
      ]
    },
    {
      "name": "Бердянск, Волонтеров 49Б",
      "address": "Бердянск, Волонтеров 49Б",
      "link": "https://ozon.ru/point/543419",
      "operationTime": "неизвестно",
      "coordinates": [
        39.30424000000001,
        48.571625000009185
      ]
    },
    {
      "name": "Мелитополь, ул.Гагарина,3",
      "address": "Мелитополь, ул.Гагарина,3",
      "link": "https://ozon.ru/point/543202",
      "operationTime": "неизвестно",
      "coordinates": [
        35.338923999999956,
        46.859837000014174
      ]
    },
    {
      "name": "Енакиево, ул. Айвазовского 68",
      "address": "Енакиево, ул. Айвазовского 68",
      "link": "https://ozon.ru/point/541466",
      "operationTime": "неизвестно",
      "coordinates": [
        38.20606800000001,
        48.26517900001007
      ]
    },
    {
      "name": "Горловка, ул. Болотникова 29а",
      "address": "Горловка, ул. Болотникова 29а",
      "link": "https://ozon.ru/point/541472",
      "operationTime": "неизвестно",
      "coordinates": [
        37.96999900000002,
        48.33809600000985
      ]
    },
    {
      "name": "Горловка, проспект Победы 67г",
      "address": "Горловка, проспект Победы 67г",
      "link": "https://ozon.ru/point/541464",
      "operationTime": "неизвестно",
      "coordinates": [
        38.00282399999999,
        48.30662500000998
      ]
    },
    {
      "name": " Мариуполь, пер. Днепропетровский 11",
      "address": " Мариуполь, пер. Днепропетровский 11",
      "link": "https://ozon.ru/point/541471",
      "operationTime": "неизвестно",
      "coordinates": [
        37.51161599999998,
        47.07902600001351
      ]
    },
    {
      "name": "Приморск улица Шевченко, 1",
      "address": "Приморск улица Шевченко, 1",
      "link": "https://ozon.ru/point/539194",
      "operationTime": "неизвестно",
      "coordinates": [
        36.35656199999999,
        46.72988500001454
      ]
    },
    {
      "name": "Мариуполь ул. кронштадтская 14",
      "address": "Мариуполь ул. кронштадтская 14",
      "link": "https://ozon.ru/point/539199",
      "operationTime": "неизвестно",
      "coordinates": [
        37.51307999999998,
        47.08112500001352
      ]
    },
    {
      "name": "Донецк, ул. Артёма 194Б",
      "address": "Донецк, ул. Артёма 194Б",
      "link": "https://ozon.ru/point/539200",
      "operationTime": "неизвестно",
      "coordinates": [
        37.75452099999999,
        48.03793200001074
      ]
    },
    {
      "name": "Донецк, переулок Россини д.2",
      "address": "Донецк, переулок Россини д.2",
      "link": "https://ozon.ru/point/539198",
      "operationTime": "неизвестно",
      "coordinates": [
        37.78578200000002,
        48.032178000010745
      ]
    },
    {
      "name": "Донецк Шевченко д.42Б",
      "address": "Донецк Шевченко д.42Б",
      "link": "https://ozon.ru/point/539204",
      "operationTime": "неизвестно",
      "coordinates": [
        37.83548599999999,
        48.00956700001082
      ]
    },
    {
      "name": "Донецк ЖД Вокзал Павильон",
      "address": "Донецк ЖД Вокзал Павильон",
      "link": "https://ozon.ru/point/539196",
      "operationTime": "неизвестно",
      "coordinates": [
        37.74767000000001,
        48.042496000010736
      ]
    },
    {
      "name": "Донецк Багратиона 23",
      "address": "Донецк Багратиона 23",
      "link": "https://ozon.ru/point/539206",
      "operationTime": "неизвестно",
      "coordinates": [
        37.899112999999986,
        47.99378300001086
      ]
    },
    {
      "name": "г.Кировское, Ул.Чапаева,7",
      "address": "г.Кировское, Ул.Чапаева,7",
      "link": "https://ozon.ru/point/539205",
      "operationTime": "неизвестно",
      "coordinates": [
        38.35573599999998,
        48.14458900001043
      ]
    },
    {
      "name": "г.Шахтерск мкн Журавлёва дом 451",
      "address": "г.Шахтерск мкн Журавлёва дом 451",
      "link": "https://ozon.ru/point/539197",
      "operationTime": "неизвестно",
      "coordinates": [
        38.48208399999998,
        48.04162500001073
      ]
    },
    {
      "name": "г Бердянск Гайдара (бул Шевченко) 12 а",
      "address": "г Бердянск Гайдара (бул Шевченко) 12 а",
      "link": "https://ozon.ru/point/539203",
      "operationTime": "неизвестно",
      "coordinates": [
        36.783711000000004,
        46.77779000001442
      ]
    },
    {
      "name": "Бердянск, Восточный проспект, 119",
      "address": "Бердянск, Восточный проспект, 119",
      "link": "https://ozon.ru/point/539207",
      "operationTime": "неизвестно",
      "coordinates": [
        36.80322300000001,
        46.75032000001451
      ]
    },
    {
      "name": "Донецк, проспект Мира, 11а",
      "address": "Донецк, проспект Мира, 11а",
      "link": "https://ozon.ru/point/539192",
      "operationTime": "неизвестно",
      "coordinates": [
        37.799732999999996,
        48.016890000010775
      ]
    },
    {
      "name": "Шахтерск Ленинградская 12",
      "address": "Шахтерск Ленинградская 12",
      "link": "https://ozon.ru/point/538185",
      "operationTime": "неизвестно",
      "coordinates": [
        38.40033699999999,
        48.08799600001057
      ]
    },
    {
      "name": "пгт. Тельманово ул. Ленина 251",
      "address": "пгт. Тельманово ул. Ленина 251",
      "link": "https://ozon.ru/point/538178",
      "operationTime": "неизвестно",
      "coordinates": [
        37.99584099999999,
        47.413247000012554
      ]
    },
    {
      "name": "Макеевка, ул. 50 лет образования СССР 24а",
      "address": "Макеевка, ул. 50 лет образования СССР 24а",
      "link": "https://ozon.ru/point/538184",
      "operationTime": "неизвестно",
      "coordinates": [
        37.964035,
        48.10013400001053
      ]
    },
    {
      "name": "Донецк, ул. Постышева 43",
      "address": "Донецк, ул. Постышева 43",
      "link": "https://ozon.ru/point/538183",
      "operationTime": "неизвестно",
      "coordinates": [
        37.806092999999976,
        47.99094900001088
      ]
    },
    {
      "name": "Донецк, ул. Первомайская",
      "address": "Донецк, ул. Первомайская",
      "link": "https://ozon.ru/point/538186",
      "operationTime": "неизвестно",
      "coordinates": [
        37.798995999999974,
        47.98868800001086
      ]
    },
    {
      "name": "Донецк, ул. Ляшенко 1а",
      "address": "Донецк, ул. Ляшенко 1а",
      "link": "https://ozon.ru/point/538097",
      "operationTime": "неизвестно",
      "coordinates": [
        37.689950000000024,
        47.94837700001099
      ]
    },
    {
      "name": "Донецк, ул. Куйбышева 169 Б",
      "address": "Донецк, ул. Куйбышева 169 Б",
      "link": "https://ozon.ru/point/538096",
      "operationTime": "неизвестно",
      "coordinates": [
        37.753595000000004,
        48.02828600001076
      ]
    },
    {
      "name": "Донецк, ул. Кольцова 15",
      "address": "Донецк, ул. Кольцова 15",
      "link": "https://ozon.ru/point/538095",
      "operationTime": "неизвестно",
      "coordinates": [
        37.76950400000001,
        47.95949200001094
      ]
    },
    {
      "name": "Донецк, ул. Буденновских партизан",
      "address": "Донецк, ул. Буденновских партизан",
      "link": "https://ozon.ru/point/538369",
      "operationTime": "неизвестно",
      "coordinates": [
        37.92154399999999,
        47.966117000010954
      ]
    },
    {
      "name": "Донецк, пр. Киевский 24",
      "address": "Донецк, пр. Киевский 24",
      "link": "https://ozon.ru/point/538182",
      "operationTime": "неизвестно",
      "coordinates": [
        37.77885599999996,
        48.04423400001074
      ]
    },
    {
      "name": "Донецк, пр. Ильича 27",
      "address": "Донецк, пр. Ильича 27",
      "link": "https://ozon.ru/point/538179",
      "operationTime": "неизвестно",
      "coordinates": [
        37.83056299999997,
        48.000753000010874
      ]
    },
    {
      "name": "Донецк, пр. Гурова 22",
      "address": "Донецк, пр. Гурова 22",
      "link": "https://ozon.ru/point/538094",
      "operationTime": "неизвестно",
      "coordinates": [
        37.80777299999997,
        48.00430400001081
      ]
    },
    {
      "name": "г. Донецк, бул. Шевченко 66",
      "address": "г. Донецк, бул. Шевченко 66",
      "link": "https://ozon.ru/point/538177",
      "operationTime": "неизвестно",
      "coordinates": [
        37.849239000000026,
        48.00993400001081
      ]
    },
    {
      "name": "г. Донецк, Куприна 3а",
      "address": "г. Донецк, Куприна 3а",
      "link": "https://ozon.ru/point/538181",
      "operationTime": "неизвестно",
      "coordinates": [
        37.80605699999999,
        47.95885300001095
      ]
    },
    {
      "name": "г.Харцызск, ул.Первомайская,1а",
      "address": "г.Харцызск, ул.Первомайская,1а",
      "link": "https://ozon.ru/point/538093",
      "operationTime": "неизвестно",
      "coordinates": [
        38.15059700000001,
        48.042505000010706
      ]
    },
    {
      "name": "г.Харцызск, ул.Вокзальная, 67",
      "address": "г.Харцызск, ул.Вокзальная, 67",
      "link": "https://ozon.ru/point/538092",
      "operationTime": "неизвестно",
      "coordinates": [
        38.14486500000001,
        48.03772700001074
      ]
    },
    {
      "name": "г. Шахтёрск, улица Крупская,1( района автовокзала)",
      "address": "г. Шахтёрск, улица Крупская,1( района автовокзала)",
      "link": "https://ozon.ru/point/538091",
      "operationTime": "неизвестно",
      "coordinates": [
        38.48273999999997,
        48.04320300001071
      ]
    },
    {
      "name": "г. Донецк, пр.Шевченко 129",
      "address": "г. Донецк, пр.Шевченко 129",
      "link": "https://ozon.ru/point/538180",
      "operationTime": "неизвестно",
      "coordinates": [
        37.864259000000025,
        48.00949400001077
      ]
    },
    {
      "name": "Бердянск, ул. Центральная 17",
      "address": "Бердянск, ул. Центральная 17",
      "link": "https://ozon.ru/point/538187",
      "operationTime": "неизвестно",
      "coordinates": [
        36.794256999999995,
        46.75554400001449
      ]
    },
    {
      "name": "Донецк, ул. Университетская 76",
      "address": "Донецк, ул. Университетская 76",
      "link": "https://ozon.ru/point/538086",
      "operationTime": "неизвестно",
      "coordinates": [
        37.79593300000001,
        48.02149500001077
      ]
    },
    {
      "name": "Донецк, бул. Шевченко, 66",
      "address": "Донецк, бул. Шевченко, 66",
      "link": "https://ozon.ru/point/536833",
      "operationTime": "неизвестно",
      "coordinates": [
        37.84923900000002,
        48.00993400001079
      ]
    },
    {
      "name": "Донецк, ул. Пилотная 30",
      "address": "Донецк, ул. Пилотная 30",
      "link": "https://ozon.ru/point/536830",
      "operationTime": "неизвестно",
      "coordinates": [
        37.79347099999999,
        47.973459000010926
      ]
    },
    {
      "name": "Донецк, ул. Речная 24Б",
      "address": "Донецк, ул. Речная 24Б",
      "link": "https://ozon.ru/point/536838",
      "operationTime": "неизвестно",
      "coordinates": [
        37.810323999999966,
        47.95340400001097
      ]
    },
    {
      "name": "Мариуполь, Казанцева 22а",
      "address": "Мариуполь, Казанцева 22а",
      "link": "https://ozon.ru/point/536831",
      "operationTime": "неизвестно",
      "coordinates": [
        37.53925700000001,
        47.096568000013434
      ]
    },
    {
      "name": "Мариуполь, ул. Февральская 44а",
      "address": "Мариуполь, ул. Февральская 44а",
      "link": "https://ozon.ru/point/536835",
      "operationTime": "неизвестно",
      "coordinates": [
        37.67508299999996,
        47.11328200001338
      ]
    },
    {
      "name": "Мариуполь, ул. Киевская 51",
      "address": "Мариуполь, ул. Киевская 51",
      "link": "https://ozon.ru/point/536837",
      "operationTime": "неизвестно",
      "coordinates": [
        37.687749,
        47.12512200001339
      ]
    },
    {
      "name": "Мариуполь, пр. Победы 89",
      "address": "Мариуполь, пр. Победы 89",
      "link": "https://ozon.ru/point/536673",
      "operationTime": "неизвестно",
      "coordinates": [
        37.65426,
        47.106075000013455
      ]
    },
    {
      "name": "Мариуполь, пр. Металлургов 227",
      "address": "Мариуполь, пр. Металлургов 227",
      "link": "https://ozon.ru/point/536828",
      "operationTime": "неизвестно",
      "coordinates": [
        37.56745500000003,
        47.135140000013344
      ]
    },
    {
      "name": "Мариуполь, пр. Металлургов 97",
      "address": "Мариуполь, пр. Металлургов 97",
      "link": "https://ozon.ru/point/536829",
      "operationTime": "неизвестно",
      "coordinates": [
        37.55440299999998,
        47.10710000001347
      ]
    },
    {
      "name": "Енакиево, ул. Ленина 91а",
      "address": "Енакиево, ул. Ленина 91а",
      "link": "https://ozon.ru/point/536668",
      "operationTime": "неизвестно",
      "coordinates": [
        38.20826,
        48.218447000010194
      ]
    },
    {
      "name": "Енакиево, 50 лет Октября 58а",
      "address": "Енакиево, 50 лет Октября 58а",
      "link": "https://ozon.ru/point/536666",
      "operationTime": "неизвестно",
      "coordinates": [
        38.211377,
        48.24881500001009
      ]
    },
    {
      "name": "Горловка, ул. Гагарина 32",
      "address": "Горловка, ул. Гагарина 32",
      "link": "https://ozon.ru/point/536832",
      "operationTime": "неизвестно",
      "coordinates": [
        38.020942999999995,
        48.30557600000995
      ]
    },
    {
      "name": "Горловка, ул. Бессонова 29а",
      "address": "Горловка, ул. Бессонова 29а",
      "link": "https://ozon.ru/point/536827",
      "operationTime": "неизвестно",
      "coordinates": [
        38.059605999999995,
        48.32948300000988
      ]
    },
    {
      "name": "Горловка, ул. 40 лет Украины 9",
      "address": "Горловка, ул. 40 лет Украины 9",
      "link": "https://ozon.ru/point/536836",
      "operationTime": "неизвестно",
      "coordinates": [
        38.14293400000001,
        48.32159300000991
      ]
    },
    {
      "name": "Горловка, проспект Победы 55",
      "address": "Горловка, проспект Победы 55",
      "link": "https://ozon.ru/point/536824",
      "operationTime": "неизвестно",
      "coordinates": [
        38.01027100000001,
        48.303874000009955
      ]
    },
    {
      "name": "г. Харцызск, ул. Шалимова 14Б",
      "address": "г. Харцызск, ул. Шалимова 14Б",
      "link": "https://ozon.ru/point/536623",
      "operationTime": "неизвестно",
      "coordinates": [
        38.156839999999995,
        48.03405200001072
      ]
    },
    {
      "name": "г. Зугрес, ул. Рыночная 1",
      "address": "г. Зугрес, ул. Рыночная 1",
      "link": "https://ozon.ru/point/536839",
      "operationTime": "неизвестно",
      "coordinates": [
        38.26624599999998,
        48.00740300001083
      ]
    },
    {
      "name": "Торез, Пионерская 1",
      "address": "Торез, Пионерская 1",
      "link": "https://ozon.ru/point/536825",
      "operationTime": "неизвестно",
      "coordinates": [
        38.61699300000001,
        48.02685800001074
      ]
    },
    {
      "name": "Донецк, ул. Независимости 16Д",
      "address": "Донецк, ул. Независимости 16Д",
      "link": "https://ozon.ru/point/536826",
      "operationTime": "неизвестно",
      "coordinates": [
        37.91411499999999,
        47.99151600001087
      ]
    },
    {
      "name": "Донецк, ул. Артема 147б",
      "address": "Донецк, ул. Артема 147б",
      "link": "https://ozon.ru/point/536823",
      "operationTime": "неизвестно",
      "coordinates": [
        37.80002899999998,
        48.02230200001077
      ]
    },
    {
      "name": "Донецк, улица Коммунаров, 38",
      "address": "Донецк, улица Коммунаров, 38",
      "link": "https://ozon.ru/point/535056",
      "operationTime": "неизвестно",
      "coordinates": [
        37.70346,
        47.970189000010926
      ]
    },
    {
      "name": "Макеевка, кв. Северный 17",
      "address": "Макеевка, кв. Северный 17",
      "link": "https://ozon.ru/point/534957",
      "operationTime": "неизвестно",
      "coordinates": [
        37.95513199999998,
        48.09835300001054
      ]
    },
    {
      "name": "Донецк, пр - кт Ленинский, остановка ‘ Звездный’",
      "address": "Донецк, пр - кт Ленинский, остановка ‘ Звездный’",
      "link": "https://ozon.ru/point/534953",
      "operationTime": "неизвестно",
      "coordinates": [
        37.77597399999997,
        47.95904900001095
      ]
    },
    {
      "name": "Донецк, бул. Шахтостроителей 20",
      "address": "Донецк, бул. Шахтостроителей 20",
      "link": "https://ozon.ru/point/534949",
      "operationTime": "неизвестно",
      "coordinates": [
        37.85422500000003,
        48.00878300001083
      ]
    },
    {
      "name": "г. Харцызск, м-н Юбилейный 4",
      "address": "г. Харцызск, м-н Юбилейный 4",
      "link": "https://ozon.ru/point/534940",
      "operationTime": "неизвестно",
      "coordinates": [
        38.14011299999998,
        48.05620800001068
      ]
    },