{
  "name": "7dostavka",
  "source": "https://dostavka.7telecom.ru",
  "points": [
    {
      "name": "Мелитополь, б-р 30-летия Победы, д. 40",
      "address": "Мелитополь, б-р 30-летия Победы, д. 40",
      "link": "https://ozon.ru/point/1230955%20style=",
      "operationTime": "неизвестно",
      "coordinates": [
        35.88675918036782,
        46.424209345434754
      ]
    },
    {
      "name": "г. Горловка, ул. Жукова, д. 6",
      "address": "г. Горловка, ул. Жукова, д. 6",
      "link": "https://ozon.ru/point/1230954%20style=",
      "operationTime": "неизвестно",
      "coordinates": [
        37.970291,
        48.318125000009914
      ]
    },
    {
      "name": "г. Донецк, ул. 60-летия СССР, 24а",
      "address": "г. Донецк, ул. 60-летия СССР, 24а",
      "link": "https://ozon.ru/point/1230959%20style=",
      "operationTime": "неизвестно",
      "coordinates": [
        37.74231500000003,
        48.00871900001084
      ]
    },
    {
      "name": "г. Донецк, ул. Палладина, 22",
      "address": "г. Донецк, ул. Палладина, 22",
      "link": "https://ozon.ru/point/1230956%20style=",
      "operationTime": "неизвестно",
      "coordinates": [
        37.96610100000001,
        47.95568500001096
      ]
    },
    {
      "name": "г. Енакиево, ул. Ленина, д. 99",
      "address": "г. Енакиево, ул. Ленина, д. 99",
      "link": "https://ozon.ru/point/1230960%20style=",
      "operationTime": "неизвестно",
      "coordinates": [
        38.20718899999999,
        48.22271100001021
      ]
    },
    {
      "name": "г. Луганск, квартал Норинского, д. 1",
      "address": "г. Луганск, квартал Норинского, д. 1",
      "link": "https://ozon.ru/point/1230957%20style=",
      "operationTime": "неизвестно",
      "coordinates": [
        39.397207000000016,
        48.58091200000915
      ]
    },
    {
      "name": "г. Луганск, ул. Щербакова, 7В",
      "address": "г. Луганск, ул. Щербакова, 7В",
      "link": "https://ozon.ru/point/1230966%20style=",
      "operationTime": "неизвестно",
      "coordinates": [
        39.276602000000004,
        48.53961400000929
      ]
    },
    {
      "name": "пгт. Андреевка, пр-т Труда 23",
      "address": "пгт. Андреевка, пр-т Труда 23",
      "link": "https://ozon.ru/point/1230241%20style=",
      "operationTime": "неизвестно",
      "coordinates": [
        36.58230300000002,
        47.09733000001345
      ]
    },
    {
      "name": "Бердянск, Азовский 7",
      "address": "Бердянск, Азовский 7",
      "link": "https://ozon.ru/point/1230234%20style=",
      "operationTime": "неизвестно",
      "coordinates": [
        36.79067300000002,
        46.76002000001448
      ]
    },
    {
      "name": "Пгт. Кирилловка, ул. Центральная, д. 28",
      "address": "Пгт. Кирилловка, ул. Центральная, д. 28",
      "link": "https://ozon.ru/point/1229563%20style=",
      "operationTime": "неизвестно",
      "coordinates": [
        35.36954699999998,
        46.37402700001557
      ]
    },
    {
      "name": "Молочанск, ул. Вокзальная, д. 40",
      "address": "Молочанск, ул. Вокзальная, д. 40",
      "link": "https://ozon.ru/point/1229354%20style=",
      "operationTime": "неизвестно",
      "coordinates": [
        35.59924699999998,
        47.20706400001314
      ]
    },
    {
      "name": "Донецк, ул. Щетинина, д. 23",
      "address": "Донецк, ул. Щетинина, д. 23",
      "link": "https://ozon.ru/point/1229358%20style=",
      "operationTime": "неизвестно",
      "coordinates": [
        37.92094199999999,
        47.980486000010906
      ]
    },
    {
      "name": "Бердянск, Мелитопольское шоссе, 114 В",
      "address": "Бердянск, Мелитопольское шоссе, 114 В",
      "link": "https://ozon.ru/point/1229374%20style=",
      "operationTime": "неизвестно",
      "coordinates": [
        36.73203100000001,
        46.79106300001436
      ]
    },
    {
      "name": "Донецк, Горького 66",
      "address": "Донецк, Горького 66",
      "link": "https://ozon.ru/point/1224277%20style=",
      "operationTime": "неизвестно",
      "coordinates": [
        37.806416000000006,
        47.992637000010895
      ]
    },
    {
      "name": "Донецк, Ильича 91",
      "address": "Донецк, Ильича 91",
      "link": "https://ozon.ru/point/1224278%20style=",
      "operationTime": "неизвестно",
      "coordinates": [
        37.84177390000002,
        48.001083800010825
      ]
    },
    {
      "name": "Харцызск, ул. Краснознаменская, 59Б ( ТК Триумф)",
      "address": "Харцызск, ул. Краснознаменская, 59Б ( ТК Триумф)",
      "link": "https://ozon.ru/point/1224268%20style=",
      "operationTime": "неизвестно",
      "coordinates": [
        38.155744,
        48.03818200001072
      ]
    },
    {
      "name": "Донецк, ул. Шутова 16 А",
      "address": "Донецк, ул. Шутова 16 А",
      "link": "https://ozon.ru/point/1224266%20style=",
      "operationTime": "неизвестно",
      "coordinates": [
        37.76649500000001,
        47.942046000011
      ]
    },
    {
      "name": "Макеевка, Бульвар Горбачева 32-131",
      "address": "Макеевка, Бульвар Горбачева 32-131",
      "link": "https://ozon.ru/point/1224265%20style=",
      "operationTime": "неизвестно",
      "coordinates": [
        37.96343299999999,
        48.04045000001072
      ]
    },
    {
      "name": "Донецк, Ул.230 Стрелковой дивизии 22а",
      "address": "Донецк, Ул.230 Стрелковой дивизии 22а",
      "link": "https://ozon.ru/point/1224261%20style=",
      "operationTime": "неизвестно",
      "coordinates": [
        37.91608300000002,
        47.99050300001084
      ]
    },
    {
      "name": "Донецк, Мушкетовская 5",
      "address": "Донецк, Мушкетовская 5",
      "link": "https://ozon.ru/point/1217155%20style=",
      "operationTime": "неизвестно",
      "coordinates": [
        37.828002999999995,
        47.99113600001086
      ]
    },
    {
      "name": "Донецк, ул. Пролетарская 10а",
      "address": "Донецк, ул. Пролетарская 10а",
      "link": "https://ozon.ru/point/1217171%20style=",
      "operationTime": "неизвестно",
      "coordinates": [
        37.88154200000001,
        47.96302200001095
      ]
    },
    {
      "name": "Краснодон, ул. Титова 5",
      "address": "Краснодон, ул. Титова 5",
      "link": "https://ozon.ru/point/1217145%20style=",
      "operationTime": "неизвестно",
      "coordinates": [
        39.747082999999996,
        48.289638000009965
      ]
    },
    {
      "name": "Донецк, ул. Октября 24",
      "address": "Донецк, ул. Октября 24",
      "link": "https://ozon.ru/point/1215819%20style=",
      "operationTime": "неизвестно",
      "coordinates": [
        37.882153,
        47.95962500001098
      ]
    },
    {
      "name": "Макеевка, ул. Ленина 152",
      "address": "Макеевка, ул. Ленина 152",
      "link": "https://ozon.ru/point/1215795%20style=",
      "operationTime": "неизвестно",
      "coordinates": [
        37.95836600000001,
        48.08437300001061
      ]
    },
    {
      "name": "Комсомольское, ул. Горького, 69 Б",
      "address": "Комсомольское, ул. Горького, 69 Б",
      "link": "https://ozon.ru/point/1215789%20style=",
      "operationTime": "неизвестно",
      "coordinates": [
        38.07041300000001,
        47.66593400001179
      ]
    },
    {
      "name": "Донецк, ул. Северская, 23 а",
      "address": "Донецк, ул. Северская, 23 а",
      "link": "https://ozon.ru/point/1215785%20style=",
      "operationTime": "неизвестно",
      "coordinates": [
        37.81022500000001,
        48.032287000010726
      ]
    },
    {
      "name": "Ровное, ( Центральная) Ленина 24",
      "address": "Ровное, ( Центральная) Ленина 24",
      "link": "https://ozon.ru/point/1203795%20style=",
      "operationTime": "неизвестно",
      "coordinates": [
        34.760470000000005,
        46.359981000015615
      ]
    },
    {
      "name": "Станица Луганская, улица Центральная 24Б",
      "address": "Станица Луганская, улица Центральная 24Б",
      "link": "https://ozon.ru/point/1203806%20style=",
      "operationTime": "неизвестно",
      "coordinates": [
        39.49873399999997,
        48.641612000008976
      ]
    },
    {
      "name": "ПГТ Лутугино , ул. Ленина 114а",
      "address": "ПГТ Лутугино , ул. Ленина 114а",
      "link": "https://ozon.ru/point/1203798%20style=",
      "operationTime": "неизвестно",
      "coordinates": [
        39.19856199999998,
        48.400351000009685
      ]
    },
    {
      "name": "Нижние Серогозы, улица Независимости д. 12а",
      "address": "Нижние Серогозы, улица Независимости д. 12а",
      "link": "https://ozon.ru/point/1203599%20style=",
      "operationTime": "неизвестно",
      "coordinates": [
        34.37692799999999,
        46.85078800001419
      ]
    },
    {
      "name": "Луганск, улица Черноморская 2В",
      "address": "Луганск, улица Черноморская 2В",
      "link": "https://ozon.ru/point/1203796%20style=",
      "operationTime": "неизвестно",
      "coordinates": [
        39.261425999999965,
        48.5416420000093
      ]
    },
    {
      "name": "Стаханов, ул Фестивальная, 61",
      "address": "Стаханов, ул Фестивальная, 61",
      "link": "https://ozon.ru/point/1203797%20style=",
      "operationTime": "неизвестно",
      "coordinates": [
        38.66893399999997,
        48.584530000009174
      ]
    },
    {
      "name": "Алчевск , улица Ленина 13",
      "address": "Алчевск , улица Ленина 13",
      "link": "https://ozon.ru/point/1203575%20style=",
      "operationTime": "неизвестно",
      "coordinates": [
        38.813670000000045,
        48.4692390000095
      ]
    },
    {
      "name": "Мелитополь, улица Чайковского, 44",
      "address": "Мелитополь, улица Чайковского, 44",
      "link": "https://ozon.ru/point/701445%20style=",
      "operationTime": "неизвестно",
      "coordinates": [
        35.360959000000015,
        46.86686700001413
      ]
    },
    {
      "name": "Донецк, Щорсе 2а",
      "address": "Донецк, Щорсе 2а",
      "link": "https://ozon.ru/point/701438%20style=",
      "operationTime": "неизвестно",
      "coordinates": [
        37.79553799999999,
        47.99937800001084
      ]
    },
    {
      "name": "Донецк ул Розы Люксембург 84Б",
      "address": "Донецк ул Розы Люксембург 84Б",
      "link": "https://ozon.ru/point/701431%20style=",
      "operationTime": "неизвестно",
      "coordinates": [
        37.787543,
        48.0208860000108
      ]
    },
    {
      "name": "Бердянск улица Химиков, 13",
      "address": "Бердянск улица Химиков, 13",
      "link": "https://ozon.ru/point/701428%20style=",
      "operationTime": "неизвестно",
      "coordinates": [
        36.770990999999974,
        46.76592700001447
      ]
    },
    {
      "name": "Мелитополь ул.М.Грушевского 17",
      "address": "Мелитополь ул.М.Грушевского 17",
      "link": "https://ozon.ru/point/624721%20style=",
      "operationTime": "неизвестно",
      "coordinates": [
        35.381908,
        46.84546000001421
      ]
    },
    {
      "name": "Макеевка, ул. Репина 24б",
      "address": "Макеевка, ул. Репина 24б",
      "link": "https://ozon.ru/point/622515%20style=",
      "operationTime": "неизвестно",
      "coordinates": [
        37.98301399999998,
        48.01569900001078
      ]
    },
    {
      "name": "Макеевка, ул. Кронштадская 69",
      "address": "Макеевка, ул. Кронштадская 69",
      "link": "https://ozon.ru/point/622517%20style=",
      "operationTime": "неизвестно",
      "coordinates": [
        37.85936300000004,
        48.0360890000107
      ]
    },
    {
      "name": "Донецк, Раздольная 34б",
      "address": "Донецк, Раздольная 34б",
      "link": "https://ozon.ru/point/620819%20style=",
      "operationTime": "неизвестно",
      "coordinates": [
        37.914869999999986,
        47.974376000010906
      ]
    },
    {
      "name": "Донецк, Артёма 50а",
      "address": "Донецк, Артёма 50а",
      "link": "https://ozon.ru/point/620808%20style=",
      "operationTime": "неизвестно",
      "coordinates": [
        37.80412500000003,
        47.99325300001086
      ]
    },
    {
      "name": "Мариуполь, ул. Мамина Сибиряка, 47",
      "address": "Мариуполь, ул. Мамина Сибиряка, 47",
      "link": "https://ozon.ru/point/620809%20style=",
      "operationTime": "неизвестно",
      "coordinates": [
        37.60589399999998,
        47.150175000013334
      ]
    },
    {
      "name": "Донецк, пр. Ильича 84",
      "address": "Донецк, пр. Ильича 84",
      "link": "https://ozon.ru/point/620816%20style=",
      "operationTime": "неизвестно",
      "coordinates": [
        37.85860800000001,
        48.003370000010825
      ]
    },
    {
      "name": "Г. Донецк, ул. Ивана Ткаченко, 121 А",
      "address": "Г. Донецк, ул. Ивана Ткаченко, 121 А",
      "link": "https://ozon.ru/point/565090%20style=",
      "operationTime": "неизвестно",
      "coordinates": [
        37.80150200000001,
        47.978170000010884
      ]
    },
    {
      "name": "г. Донецк, ул. Панфилова 118",
      "address": "г. Донецк, ул. Панфилова 118",
      "link": "https://ozon.ru/point/565085%20style=",
      "operationTime": "неизвестно",
      "coordinates": [
        37.769091,
        48.00790900001082
      ]
    },
    {
      "name": "Луганск, улица Чапаева 59А",
      "address": "Луганск, улица Чапаева 59А",
      "link": "https://ozon.ru/point/569383%20style=",
      "operationTime": "неизвестно",
      "coordinates": [
        39.276185999999996,
        48.56419600000923
      ]
    },
    {
      "name": "Макеевка, ул. Кольцевая 25-1",
      "address": "Макеевка, ул. Кольцевая 25-1",
      "link": "https://ozon.ru/point/569386%20style=",
      "operationTime": "неизвестно",
      "coordinates": [
        37.908995000000026,
        48.06964800001062
      ]
    },
    {
      "name": "Мелитополь, ул. Красноармейская, 3",
      "address": "Мелитополь, ул. Красноармейская, 3",
      "link": "https://ozon.ru/point/569389%20style=",
      "operationTime": "неизвестно",
      "coordinates": [
        35.367238999999984,
        46.83361800001425
      ]
    },
    {
      "name": "Приазовское, Горького, 99",
      "address": "Приазовское, Горького, 99",
      "link": "https://ozon.ru/point/569378%20style=",
      "operationTime": "неизвестно",
      "coordinates": [
        35.64319199999998,
        46.730521000014534
      ]
    },
    {
      "name": "Торез, ул. Ленина 277",
      "address": "Торез, ул. Ленина 277",
      "link": "https://ozon.ru/point/569380%20style=",
      "operationTime": "неизвестно",
      "coordinates": [
        38.66825000000003,
        48.01172000001081
      ]
    },
    {
      "name": "Мариуполь, ул. Приазовская 47",
      "address": "Мариуполь, ул. Приазовская 47",
      "link": "https://ozon.ru/point/565133%20style=",
      "operationTime": "неизвестно",
      "coordinates": [
        37.61233499999999,
        47.159918000013306
      ]
    },
    {
      "name": "Донецк, бул. Шевченко, 77",
      "address": "Донецк, бул. Шевченко, 77",
      "link": "https://ozon.ru/point/536833%20style=",
      "operationTime": "неизвестно",
      "coordinates": [
        37.84923900000004,
        48.00993400001079
      ]
    },
    {
      "name": "Мариуполь, пр. Строителей 154",
      "address": "Мариуполь, пр. Строителей 154",
      "link": "https://ozon.ru/point/1230392%20style=",
      "operationTime": "неизвестно",
      "coordinates": [
        37.525288,
        47.118531000013405
      ]
    },
    {
      "name": "Донецк, пл. Конституции, д.4",
      "address": "Донецк, пл. Конституции, д.4",
      "link": "https://ozon.ru/point/1230244%20style=",
      "operationTime": "неизвестно",
      "coordinates": [
        37.81327999999998,
        48.00238900001084
      ]
    },
    {
      "name": "г. Красный Луч, 3-й Микрорайон, д.36 ",
      "address": "г. Красный Луч, 3-й Микрорайон, д.36 ",
      "link": "https://ozon.ru/point/1229566%20style=",
      "operationTime": "неизвестно",
      "coordinates": [
        38.935382999999995,
        48.15941800001037
      ]
    },
    {
      "name": "Торез, м-он 1, торговые ряды в районе супер маркета Кураж",
      "address": "Торез, м-он 1, торговые ряды в районе супер маркета Кураж",
      "link": "https://ozon.ru/point/1229363%20style=",
      "operationTime": "неизвестно",
      "coordinates": [
        38.63245299999999,
        48.04261900001071
      ]
    },
    {
      "name": "Харцызск, ул. Октябрьская, 34 Б",
      "address": "Харцызск, ул. Октябрьская, 34 Б",
      "link": "https://ozon.ru/point/1224267%20style=",
      "operationTime": "неизвестно",
      "coordinates": [
        38.155744,
        48.03623300001074
      ]
    },
    {
      "name": "Донецк, Ул. Артема, 163",
      "address": "Донецк, Ул. Артема, 163",
      "link": "https://ozon.ru/point/1224466%20style=",
      "operationTime": "неизвестно",
      "coordinates": [
        37.791387000000014,
        48.02966000001074
      ]
    },
    {
      "name": "Макеевка, Бульвар Горбачева 32-131",
      "address": "Макеевка, Бульвар Горбачева 32-131",
      "link": "https://ozon.ru/point/1224265%20style=",
      "operationTime": "неизвестно",
      "coordinates": [
        37.963432999999995,
        48.04045000001072
      ]
    },
    {
      "name": "Донецк, ул. Петровского, 134б",
      "address": "Донецк, ул. Петровского, 134б",
      "link": "https://ozon.ru/point/1224262%20style=",
      "operationTime": "неизвестно",
      "coordinates": [
        37.69073099999999,
        47.950399000011004
      ]
    },
    {
      "name": "Макеевка, ул. Островского 2-37",
      "address": "Макеевка, ул. Островского 2-37",
      "link": "https://ozon.ru/point/1217157%20style=",
      "operationTime": "неизвестно",
      "coordinates": [
        37.966936,
        48.04295600001072
      ]
    },
    {
      "name": "Донецк, Артема 102",
      "address": "Донецк, Артема 102",
      "link": "https://ozon.ru/point/1224283%20style=",
      "operationTime": "неизвестно",
      "coordinates": [
        37.800900999999996,
        48.01906000001079
      ]
    },
    {
      "name": "Донецк, ул. Шутова 16 А",
      "address": "Донецк, ул. Шутова 16 А",
      "link": "https://ozon.ru/point/1224266%20style=",
      "operationTime": "неизвестно",
      "coordinates": [
        37.76649500000001,
        47.94204600001099
      ]
    },
    {
      "name": "Донецк, Ул.230 Стрелковой дивизии 22а",
      "address": "Донецк, Ул.230 Стрелковой дивизии 22а",
      "link": "https://ozon.ru/point/1224261%20style=",
      "operationTime": "неизвестно",
      "coordinates": [
        37.91608300000002,
        47.99050300001084
      ]
    },
    {
      "name": "Донецк, Мушкетовская 5",
      "address": "Донецк, Мушкетовская 5",
      "link": "https://ozon.ru/point/1217155%20style=",
      "operationTime": "неизвестно",
      "coordinates": [
        37.82800299999998,
        47.99113600001089
      ]
    },
    {
      "name": "Донецк, ул. Пролетарская 10а",
      "address": "Донецк, ул. Пролетарская 10а",
      "link": "https://ozon.ru/point/1217171%20style=",
      "operationTime": "неизвестно",
      "coordinates": [
        37.88154200000001,
        47.96302200001095
      ]
    },
    {
      "name": "Донецк, ул. Октября 24",
      "address": "Донецк, ул. Октября 24",
      "link": "https://ozon.ru/point/1215819%20style=",
      "operationTime": "неизвестно",
      "coordinates": [
        37.882152999999995,
        47.95962500001095
      ]
    },
    {
      "name": "Макеевка, ул. Ленина 152",
      "address": "Макеевка, ул. Ленина 152",
      "link": "https://ozon.ru/point/1215795%20style=",
      "operationTime": "неизвестно",
      "coordinates": [
        37.95836600000001,
        48.08437300001061
      ]
    },
    {
      "name": "Комсомольское, ул. Горького, 69 Б",
      "address": "Комсомольское, ул. Горького, 69 Б",
      "link": "https://ozon.ru/point/1215789%20style=",
      "operationTime": "неизвестно",
      "coordinates": [
        38.070413000000016,
        47.66593400001179
      ]
    },
    {
      "name": "Донецк, ул. Северская, 23 а",
      "address": "Донецк, ул. Северская, 23 а",
      "link": "https://ozon.ru/point/1215785%20style=",
      "operationTime": "неизвестно",
      "coordinates": [
        37.81022500000002,
        48.032287000010726
      ]
    },
    {
      "name": "Макеевка, ул. Ленина 85",
      "address": "Макеевка, ул. Ленина 85",
      "link": "https://ozon.ru/point/1224455%20style=",
      "operationTime": "неизвестно",
      "coordinates": [
        37.96376500000001,
        48.054088000010665
      ]
    },
    {
      "name": "Горловка, ул. Интернациональная, 2Г",
      "address": "Горловка, ул. Интернациональная, 2Г",
      "link": "https://ozon.ru/point/1224463",
      "operationTime": "неизвестно",
      "coordinates": [
        38.04080499999996,
        48.304402000009965
      ]
    },
    {
      "name": "Юбилейный, квартал Шахтерский, район домов 9 и 11",
      "address": "Юбилейный, квартал Шахтерский, район домов 9 и 11",
      "link": "https://ozon.ru/point/1224462",
      "operationTime": "неизвестно",
      "coordinates": [
        39.18997399999999,
        48.557482000009244
      ]
    },
    {
      "name": "Кировск, ул. Борисова, д. 3, пом 81",
      "address": "Кировск, ул. Борисова, д. 3, пом 81",
      "link": "https://ozon.ru/point/1224465",
      "operationTime": "неизвестно",
      "coordinates": [
        38.64786799999998,
        48.63464700000902
      ]
    },
    {
      "name": "Луганск, ул. Артема, д. 99",
      "address": "Луганск, ул. Артема, д. 99",
      "link": "https://ozon.ru/point/1224263",
      "operationTime": "неизвестно",
      "coordinates": [
        39.319044000000034,
        48.59106800000914
      ]
    },
    {
      "name": "Алчевск, ул. Московская, д. 21",
      "address": "Алчевск, ул. Московская, д. 21",
      "link": "https://ozon.ru/point/1224271",
      "operationTime": "неизвестно",
      "coordinates": [
        38.805558,
        48.46616800000952
      ]
    },
    {
      "name": "Донецк, ул. Университетская 107",
      "address": "Донецк, ул. Университетская 107",
      "link": "https://ozon.ru/point/1224270",
      "operationTime": "неизвестно",
      "coordinates": [
        37.78182000000002,
        48.03531100001072
      ]
    },
    {
      "name": "Снежное, ул. Крестьянская 43",
      "address": "Снежное, ул. Крестьянская 43",
      "link": "https://ozon.ru/point/1217165",
      "operationTime": "неизвестно",
      "coordinates": [
        38.762717999999985,
        48.022760000010734
      ]
    },
    {
      "name": "Донецк, ул. Артема 275",
      "address": "Донецк, ул. Артема 275",
      "link": "https://ozon.ru/point/1217174",
      "operationTime": "неизвестно",
      "coordinates": [
        37.749130999999984,
        48.0426610000107
      ]
    },
    {
      "name": "Энергодар. ул. Украинская д.20",
      "address": "Энергодар. ул. Украинская д.20",
      "link": "https://ozon.ru/point/1222868",
      "operationTime": "неизвестно",
      "coordinates": [
        34.64933199999998,
        47.493694000012304
      ]
    },
    {
      "name": "Брянка ул.Московская 6",
      "address": "Брянка ул.Московская 6",
      "link": "https://ozon.ru/point/1217160",
      "operationTime": "неизвестно",
      "coordinates": [
        38.67919199999998,
        48.49947400000939
      ]
    },
    {
      "name": "Енакиево, ул. Коммунистическая 49",
      "address": "Енакиево, ул. Коммунистическая 49",
      "link": "https://ozon.ru/point/1215783",
      "operationTime": "неизвестно",
      "coordinates": [
        38.17870500000001,
        48.237948000010164
      ]
    },
    {
      "name": "Горловка, ул. Пушкинская 25",
      "address": "Горловка, ул. Пушкинская 25",
      "link": "https://ozon.ru/point/1215821",
      "operationTime": "неизвестно",
      "coordinates": [
        38.016182,
        48.29976900000998
      ]
    },
    {
      "name": "Ясиноватая, Ул.Некрасова, 4а",
      "address": "Ясиноватая, Ул.Некрасова, 4а",
      "link": "https://ozon.ru/point/1215803",
      "operationTime": "неизвестно",
      "coordinates": [
        37.85492500000003,
        48.128095000010475
      ]
    },
    {
      "name": "Сивашское, Белинского 9",
      "address": "Сивашское, Белинского 9",
      "link": "https://ozon.ru/point/1205147",
      "operationTime": "неизвестно",
      "coordinates": [
        34.546135,
        46.383279000015605
      ]
    },
    {
      "name": "Рубановка, Ивана Франка 12",
      "address": "Рубановка, Ивана Франка 12",
      "link": "https://ozon.ru/point/1203807",
      "operationTime": "неизвестно",
      "coordinates": [
        34.17227999999999,
        46.9937890000138
      ]
    },
    {
      "name": "Ровное, ( Центральная) Ленина 24",
      "address": "Ровное, ( Центральная) Ленина 24",
      "link": "https://ozon.ru/point/1203795",
      "operationTime": "неизвестно",
      "coordinates": [
        34.760470000000005,
        46.359981000015594
      ]
    },
    {
      "name": "Нижние Серогозы, Мира 13",
      "address": "Нижние Серогозы, Мира 13",
      "link": "https://ozon.ru/point/1203602",
      "operationTime": "неизвестно",
      "coordinates": [
        34.37733400000002,
        46.85270200001422
      ]
    },
    {
      "name": "Мирное, Шевченко 37",
      "address": "Мирное, Шевченко 37",
      "link": "https://ozon.ru/point/1203801",
      "operationTime": "неизвестно",
      "coordinates": [
        33.46412200000002,
        46.25106400001596
      ]
    },
    {
      "name": "Красное, Садовая 61 (Кобзаря 3)",
      "address": "Красное, Садовая 61 (Кобзаря 3)",
      "link": "https://ozon.ru/point/1203799",
      "operationTime": "неизвестно",
      "coordinates": [
        32.76512799999999,
        46.1306870000163
      ]
    },
    {
      "name": "Ивановка, Соборная 3",
      "address": "Ивановка, Соборная 3",
      "link": "https://ozon.ru/point/1203609",
      "operationTime": "неизвестно",
      "coordinates": [
        34.549042,
        46.712884000014625
      ]
    },
    {
      "name": "Громовка, ул. Власенко (Ленина), 2",
      "address": "Громовка, ул. Власенко (Ленина), 2",
      "link": "https://ozon.ru/point/1203585",
      "operationTime": "неизвестно",
      "coordinates": [
        34.09967680000001,
        46.31154500001578
      ]
    },
    {
      "name": "Стаханов, Богдана Хмельницкого 4",
      "address": "Стаханов, Богдана Хмельницкого 4",
      "link": "https://ozon.ru/point/1205149",
      "operationTime": "неизвестно",
      "coordinates": [
        38.647275,
        48.575142000009215
      ]
    },
    {
      "name": "Ровеньки, Энгельса 9",
      "address": "Ровеньки, Энгельса 9",
      "link": "https://ozon.ru/point/1205163",
      "operationTime": "неизвестно",
      "coordinates": [
        39.36041200000001,
        48.088568000010554
      ]
    },
    {
      "name": "Бердянск, Военный городок 10а",
      "address": "Бердянск, Военный городок 10а",
      "link": "https://ozon.ru/point/1205176",
      "operationTime": "неизвестно",
      "coordinates": [
        36.790907,
        46.7891750000144
      ]
    },
    {
      "name": "Новотроицкое, улица Белошкуры д.12",
      "address": "Новотроицкое, улица Белошкуры д.12",
      "link": "https://ozon.ru/point/1203802",
      "operationTime": "неизвестно",
      "coordinates": [
        34.33055199999999,
        46.35304800001565
      ]
    },
    {
      "name": "Ивановка, улица Щорса (Соборная) д.9",
      "address": "Ивановка, улица Щорса (Соборная) д.9",
      "link": "https://ozon.ru/point/1203805",
      "operationTime": "неизвестно",
      "coordinates": [
        34.54904200000001,
        46.712884000014625
      ]
    },
    {
      "name": "Бердянск,ул Итальянская 55",
      "address": "Бердянск,ул Итальянская 55",
      "link": "https://ozon.ru/point/1203613",
      "operationTime": "неизвестно",
      "coordinates": [
        36.78776300000001,
        46.75679700001449
      ]
    },
    {
      "name": "Тельмановский р-н с. Гранитное, Бейды 21а",
      "address": "Тельмановский р-н с. Гранитное, Бейды 21а",
      "link": "https://ozon.ru/point/1205158",
      "operationTime": "неизвестно",
      "coordinates": [
        37.86474099999996,
        47.46002200001243
      ]
    },
    {
      "name": "Суходольск, Ленина 15",
      "address": "Суходольск, Ленина 15",
      "link": "https://ozon.ru/point/1205170",
      "operationTime": "неизвестно",
      "coordinates": [
        39.733689000000005,
        48.350809000009825
      ]
    },
    {
      "name": "Новоазовск, Советская 20",
      "address": "Новоазовск, Советская 20",
      "link": "https://ozon.ru/point/1205177",
      "operationTime": "неизвестно",
      "coordinates": [
        38.093787000000006,
        47.110718000013456
      ]
    },
    {
      "name": "ПГТ Зимогорье , улица Мира(Победы) 8",
      "address": "ПГТ Зимогорье , улица Мира(Победы) 8",
      "link": "https://ozon.ru/point/1203804",
      "operationTime": "неизвестно",
      "coordinates": [
        38.94887600000001,
        48.57879000000914
      ]
    },
    {
      "name": "Луганск, улица Оборонная 3/68\n",
      "address": "Луганск, улица Оборонная 3/68\n",
      "link": "https://ozon.ru/point/1203803",
      "operationTime": "неизвестно",
      "coordinates": [
        39.315271,
        48.563857000009186
      ]
    },
    {
      "name": "Красный Луч, 1-й Микрорайон 2\n",
      "address": "Красный Луч, 1-й Микрорайон 2\n",
      "link": "https://ozon.ru/point/1203577",
      "operationTime": "неизвестно",
      "coordinates": [
        38.926085000000015,
        48.14962000001042
      ]
    },
    {
      "name": "Антрацит , Вокзальная 10 В",
      "address": "Антрацит , Вокзальная 10 В",
      "link": "https://ozon.ru/point/1203800",
      "operationTime": "неизвестно",
      "coordinates": [
        39.08586900000004,
        48.10970700001053
      ]
    },
    {
      "name": "Дебальцево, ул.346-й Дебальцевской Стрелковой Дивизии 5",
      "address": "Дебальцево, ул.346-й Дебальцевской Стрелковой Дивизии 5",
      "link": "https://ozon.ru/point/1161398",
      "operationTime": "неизвестно",
      "coordinates": [
        38.39996,
        48.336161000009874
      ]
    },
    {
      "name": "Приморское,ул.Соборная 62Г",
      "address": "Приморское,ул.Соборная 62Г",
      "link": "https://ozon.ru/point/929125",
      "operationTime": "неизвестно",
      "coordinates": [
        33.02678400000003,
        46.17917100001615
      ]
    },
    {
      "name": "Железный Порт, ул.Школьная 54",
      "address": "Железный Порт, ул.Школьная 54",
      "link": "https://ozon.ru/point/929126",
      "operationTime": "неизвестно",
      "coordinates": [
        32.288064999999996,
        46.12157900001633
      ]
    },
    {
      "name": "Геническая горка, ул.Азовская 38",
      "address": "Геническая горка, ул.Азовская 38",
      "link": "https://ozon.ru/point/929128",
      "operationTime": "неизвестно",
      "coordinates": [
        34.830036999999976,
        46.08284200001647
      ]
    },
    {
      "name": "Геническ - 2, ул.Дружбы народов 64",
      "address": "Геническ - 2, ул.Дружбы народов 64",
      "link": "https://ozon.ru/point/929134",
      "operationTime": "неизвестно",
      "coordinates": [
        34.811172000000006,
        46.17255100001618
      ]
    },
    {
      "name": "Аскания-Нова, ул.Соборная(Красноармейская) 22",
      "address": "Аскания-Нова, ул.Соборная(Красноармейская) 22",
      "link": "https://ozon.ru/point/929133",
      "operationTime": "неизвестно",
      "coordinates": [
        33.869351999999964,
        46.454910000015346
      ]
    },
    {
      "name": "Антоновка, ул.Соборная 6Г",
      "address": "Антоновка, ул.Соборная 6Г",
      "link": "https://ozon.ru/point/929130",
      "operationTime": "неизвестно",
      "coordinates": [
        32.94791599999998,
        46.14239300001628
      ]
    },
    {
      "name": "Мелитополь,ул.Брив-ла-Гайард 13",
      "address": "Мелитополь,ул.Брив-ла-Гайард 13",
      "link": "https://ozon.ru/point/804593",
      "operationTime": "неизвестно",
      "coordinates": [
        35.38765700000002,
        46.870416000014146
      ]
    },
    {
      "name": "Акимовка, ул. Молодых Патриотов, 10/5",
      "address": "Акимовка, ул. Молодых Патриотов, 10/5",
      "link": "https://ozon.ru/point/804575",
      "operationTime": "неизвестно",
      "coordinates": [
        35.16323999999999,
        46.701111000014635
      ]
    },
    {
      "name": "Геническ, ул.Центральная 2",
      "address": "Геническ, ул.Центральная 2",
      "link": "https://ozon.ru/point/804623",
      "operationTime": "неизвестно",
      "coordinates": [
        34.81094800000001,
        46.16651800001622
      ]
    },
    {
      "name": "Каланчак, ул.Херсонская 16 ",
      "address": "Каланчак, ул.Херсонская 16 ",
      "link": "https://ozon.ru/point/804614",
      "operationTime": "неизвестно",
      "coordinates": [
        33.29045100000001,
        46.256858000015946
      ]
    },
    {
      "name": "Скадовск, ул.Гагарина 59",
      "address": "Скадовск, ул.Гагарина 59",
      "link": "https://ozon.ru/point/804609",
      "operationTime": "неизвестно",
      "coordinates": [
        32.90729199999998,
        46.113245000016356
      ]
    },
    {
      "name": "Новотроицкое, ул.Соборная 94 ",
      "address": "Новотроицкое, ул.Соборная 94 ",
      "link": "https://ozon.ru/point/804569",
      "operationTime": "неизвестно",
      "coordinates": [
        34.32873200000001,
        46.350077000015666
      ]
    },
    {
      "name": "Чаплынка, ул.Грушевского 12",
      "address": "Чаплынка, ул.Грушевского 12",
      "link": "https://ozon.ru/point/804561",
      "operationTime": "неизвестно",
      "coordinates": [
        33.53687599999997,
        46.37376000001559
      ]
    },
    {
      "name": "Геническ. Проспект Мира 87",
      "address": "Геническ. Проспект Мира 87",
      "link": "https://ozon.ru/point/565080",
      "operationTime": "неизвестно",
      "coordinates": [
        34.81339100000003,
        46.173364000016164
      ]
    },
    {
      "name": "Свердловск , кВ 60лет ссср 23 дом 1",
      "address": "Свердловск , кВ 60лет ссср 23 дом 1",
      "link": "https://ozon.ru/point/804584",
      "operationTime": "неизвестно",
      "coordinates": [
        39.67711300000001,
        48.07622800001062
      ]
    },
    {
      "name": "Луганск, Мирный 2В",
      "address": "Луганск, Мирный 2В",
      "link": "https://ozon.ru/point/804615",
      "operationTime": "неизвестно",
      "coordinates": [
        39.26955599999999,
        48.52506800000931
      ]
    },
    {
      "name": "Стаханов, ул Олимпийская, дом 15",
      "address": "Стаханов, ул Олимпийская, дом 15",
      "link": "https://ozon.ru/point/804607",
      "operationTime": "неизвестно",
      "coordinates": [
        38.617917999999996,
        48.53221000000927
      ]
    },
    {
      "name": "Свердловск,ул.Энгельса 52",
      "address": "Свердловск,ул.Энгельса 52",
      "link": "https://ozon.ru/point/804588",
      "operationTime": "неизвестно",
      "coordinates": [
        39.65466400000002,
        48.0750360000106
      ]
    },
    {
      "name": "Горловка, Минская 61",
      "address": "Горловка, Минская 61",
      "link": "https://ozon.ru/point/549331",
      "operationTime": "неизвестно",
      "coordinates": [
        38.02609000000002,
        48.32483400000991
      ]
    },
    {
      "name": "Донецк, Аристова 20",
      "address": "Донецк, Аристова 20",
      "link": "https://ozon.ru/point/549325",
      "operationTime": "неизвестно",
      "coordinates": [
        37.78016699999996,
        48.05935100001068
      ]
    },
    {
      "name": "Донецк, Первомайская 19",
      "address": "Донецк, Первомайская 19",
      "link": "https://ozon.ru/point/549338",
      "operationTime": "неизвестно",
      "coordinates": [
        37.799239000000014,
        47.98754200001088
      ]
    },
    {
      "name": "Донецк, Проспект Гринкевича 9",
      "address": "Донецк, Проспект Гринкевича 9",
      "link": "https://ozon.ru/point/549337",
      "operationTime": "неизвестно",
      "coordinates": [
        37.800487000000004,
        48.00174200001084
      ]
    },
    {
      "name": "Донецк, Шевченко 27",
      "address": "Донецк, Шевченко 27",
      "link": "https://ozon.ru/point/549324",
      "operationTime": "неизвестно",
      "coordinates": [
        37.82926,
        48.00880100001082
      ]
    },
    {
      "name": "Луганск, Ватутина 18",
      "address": "Луганск, Ватутина 18",
      "link": "https://ozon.ru/point/549315",
      "operationTime": "неизвестно",
      "coordinates": [
        39.382025,
        48.56760100000921
      ]
    },
    {
      "name": "Луганск, Оборонная 18",
      "address": "Луганск, Оборонная 18",
      "link": "https://ozon.ru/point/549252",
      "operationTime": "неизвестно",
      "coordinates": [
        39.32540400000001,
        48.55289600000925
      ]
    },
    {
      "name": "с. Азовское ул. Центральная 95 а",
      "address": "с. Азовское ул. Центральная 95 а",
      "link": "https://ozon.ru/point/547803",
      "operationTime": "неизвестно",
      "coordinates": [
        36.67775499999999,
        46.802661000014325
      ]
    },
    {
      "name": "Донецк, улица Газеты Комсомолец Донбасса 21",
      "address": "Донецк, улица Газеты Комсомолец Донбасса 21",
      "link": "https://ozon.ru/point/547815",
      "operationTime": "неизвестно",
      "coordinates": [
        37.73909599999999,
        47.96159800001096
      ]
    },
    {
      "name": "Донецк, ул Петровского 231 Б ",
      "address": "Донецк, ул Петровского 231 Б ",
      "link": "https://ozon.ru/point/547809",
      "operationTime": "неизвестно",
      "coordinates": [
        37.610745000000016,
        47.94466500001099
      ]
    },
    {
      "name": "Донецк, пр. Дзержинского, д. 69Б",
      "address": "Донецк, пр. Дзержинского, д. 69Б",
      "link": "https://ozon.ru/point/547816",
      "operationTime": "неизвестно",
      "coordinates": [
        37.83913299999998,
        47.99781700001085
      ]
    },
    {
      "name": "Горловка, ул. Нестерова 117",
      "address": "Горловка, ул. Нестерова 117",
      "link": "https://ozon.ru/point/547819",
      "operationTime": "неизвестно",
      "coordinates": [
        38.012408999999984,
        48.29341500000998
      ]
    },
    {
      "name": "Бердянск Ул Университетская 16",
      "address": "Бердянск Ул Университетская 16",
      "link": "https://ozon.ru/point/547801",
      "operationTime": "неизвестно",
      "coordinates": [
        36.78796000000002,
        46.754673000014485
      ]
    },
    {
      "name": "Мариуполь Ул.Седьмой проезд 8а",
      "address": "Мариуполь Ул.Седьмой проезд 8а",
      "link": "https://ozon.ru/point/544415",
      "operationTime": "неизвестно",
      "coordinates": [
        37.56359299999998,
        47.11575900001341
      ]
    },
    {
      "name": "Мариуполь Пос.Сартана ул.Партизанская 25",
      "address": "Мариуполь Пос.Сартана ул.Партизанская 25",
      "link": "https://ozon.ru/point/544431",
      "operationTime": "неизвестно",
      "coordinates": [
        37.69368699999998,
        47.17424700001325
      ]
    },
    {
      "name": "Кирова 50/1 ТЦ Феникс, первый этаж",
      "address": "Кирова 50/1 ТЦ Феникс, первый этаж",
      "link": "https://ozon.ru/point/544417",
      "operationTime": "неизвестно",
      "coordinates": [
        35.36271499999999,
        46.843852000014216
      ]
    },
    {
      "name": "г.Мелитополь Ул. Ивана Алексеева, 10А",
      "address": "г.Мелитополь Ул. Ивана Алексеева, 10А",
      "link": "https://ozon.ru/point/544427",
      "operationTime": "неизвестно",
      "coordinates": [
        35.36331299999997,
        46.83944400001423
      ]
    },
    {
      "name": "Мелитополь, Осипенко 98 ",
      "address": "Мелитополь, Осипенко 98 ",
      "link": "https://ozon.ru/point/544430",
      "operationTime": "неизвестно",
      "coordinates": [
        35.37500899999999,
        46.86440900001415
      ]
    },
    {
      "name": "Волноваха, Ленина 145",
      "address": "Волноваха, Ленина 145",
      "link": "https://ozon.ru/point/544421",
      "operationTime": "неизвестно",
      "coordinates": [
        35.37500899999999,
        46.86440900001415
      ]
    },
    {
      "name": "Луганск Победоносная 15 А",
      "address": "Луганск Победоносная 15 А",
      "link": "https://ozon.ru/point/544418",
      "operationTime": "неизвестно",
      "coordinates": [
        35.37500899999999,
        46.86440900001415
      ]
    },
    {
      "name": "Луганск, Королёва, 78 ",
      "address": "Луганск, Королёва, 78 ",
      "link": "https://ozon.ru/point/545540",
      "operationTime": "неизвестно",
      "coordinates": [
        35.37500899999999,
        46.86440900001415
      ]
    },
    {
      "name": "Приморск, Дружбы 15 Б",
      "address": "Приморск, Дружбы 15 Б",
      "link": "https://ozon.ru/point/543418",
      "operationTime": "неизвестно",
      "coordinates": [
        35.37500899999999,
        46.86440900001415
      ]
    },
    {
      "name": "Мелитополь, ул. Богдана Хмельницкого,89",
      "address": "Мелитополь, ул. Богдана Хмельницкого,89",
      "link": "https://ozon.ru/point/543415",
      "operationTime": "неизвестно",
      "coordinates": [
        35.37500899999999,
        46.86440900001415
      ]
    },
    {
      "name": "Макеевка, Горняцкий район ул. Кирова 14а",
      "address": "Макеевка, Горняцкий район ул. Кирова 14а",
      "link": "https://ozon.ru/point/543417",
      "operationTime": "неизвестно",
      "coordinates": [
        35.37500899999999,
        46.86440900001415
      ]
    },
    {
      "name": "Луганск, ул. Демехина,23",
      "address": "Луганск, ул. Демехина,23",
      "link": "https://ozon.ru/point/543409",
      "operationTime": "неизвестно",
      "coordinates": [
        39.30424000000002,
        48.571625000009185
      ]
    },
    {
      "name": "Бердянск, Волонтеров 49Б",
      "address": "Бердянск, Волонтеров 49Б",
      "link": "https://ozon.ru/point/543419",
      "operationTime": "неизвестно",
      "coordinates": [
        36.778743999999996,
        46.773365000014415
      ]
    },
    {
      "name": "Мелитополь, ул.Гагарина,3",
      "address": "Мелитополь, ул.Гагарина,3",
      "link": "https://ozon.ru/point/543202",
      "operationTime": "неизвестно",
      "coordinates": [
        36.778743999999996,
        46.773365000014415
      ]
    },
    {
      "name": "Енакиево, ул. Айвазовского 68",
      "address": "Енакиево, ул. Айвазовского 68",
      "link": "https://ozon.ru/point/541466",
      "operationTime": "неизвестно",
      "coordinates": [
        36.778743999999996,
        46.773365000014415
      ]
    },
    {
      "name": "Горловка, ул. Болотникова 29а",
      "address": "Горловка, ул. Болотникова 29а",
      "link": "https://ozon.ru/point/541472",
      "operationTime": "неизвестно",
      "coordinates": [
        36.778743999999996,
        46.773365000014415
      ]
    },
    {
      "name": "Горловка, проспект Победы 67г",
      "address": "Горловка, проспект Победы 67г",
      "link": "https://ozon.ru/point/541464",
      "operationTime": "неизвестно",
      "coordinates": [
        36.778743999999996,
        46.773365000014415
      ]
    },
    {
      "name": " Мариуполь, пер. Днепропетровский 11",
      "address": " Мариуполь, пер. Днепропетровский 11",
      "link": "https://ozon.ru/point/541471",
      "operationTime": "неизвестно",
      "coordinates": [
        36.778743999999996,
        46.773365000014415
      ]
    },
    {
      "name": "Приморск улица Шевченко, 1",
      "address": "Приморск улица Шевченко, 1",
      "link": "https://ozon.ru/point/539194",
      "operationTime": "неизвестно",
      "coordinates": [
        36.778743999999996,
        46.773365000014415
      ]
    },
    {
      "name": "Мариуполь ул. кронштадтская 14",
      "address": "Мариуполь ул. кронштадтская 14",
      "link": "https://ozon.ru/point/539199",
      "operationTime": "неизвестно",
      "coordinates": [
        36.778743999999996,
        46.773365000014415
      ]
    },
    {
      "name": "Донецк, ул. Артёма 194Б",
      "address": "Донецк, ул. Артёма 194Б",
      "link": "https://ozon.ru/point/539200",
      "operationTime": "неизвестно",
      "coordinates": [
        36.778743999999996,
        46.773365000014415
      ]
    },
    {
      "name": "Донецк, переулок Россини д.2",
      "address": "Донецк, переулок Россини д.2",
      "link": "https://ozon.ru/point/539198",
      "operationTime": "неизвестно",
      "coordinates": [
        36.778743999999996,
        46.773365000014415
      ]
    },
    {
      "name": "Донецк Шевченко д.42Б",
      "address": "Донецк Шевченко д.42Б",
      "link": "https://ozon.ru/point/539204",
      "operationTime": "неизвестно",
      "coordinates": [
        36.778743999999996,
        46.773365000014415
      ]
    },
    {
      "name": "Донецк ЖД Вокзал Павильон",
      "address": "Донецк ЖД Вокзал Павильон",
      "link": "https://ozon.ru/point/539196",
      "operationTime": "неизвестно",
      "coordinates": [
        36.778743999999996,
        46.773365000014415
      ]
    },
    {
      "name": "Донецк Багратиона 23",
      "address": "Донецк Багратиона 23",
      "link": "https://ozon.ru/point/539206",
      "operationTime": "неизвестно",
      "coordinates": [
        36.778743999999996,
        46.773365000014415
      ]
    },
    {
      "name": "г.Кировское, Ул.Чапаева,7",
      "address": "г.Кировское, Ул.Чапаева,7",
      "link": "https://ozon.ru/point/539205",
      "operationTime": "неизвестно",
      "coordinates": [
        36.778743999999996,
        46.773365000014415
      ]
    },
    {
      "name": "г.Шахтерск мкн Журавлёва дом 451",
      "address": "г.Шахтерск мкн Журавлёва дом 451",
      "link": "https://ozon.ru/point/539197",
      "operationTime": "неизвестно",
      "coordinates": [
        36.778743999999996,
        46.773365000014415
      ]
    },
    {
      "name": "г Бердянск Гайдара (бул Шевченко) 12 а",
      "address": "г Бердянск Гайдара (бул Шевченко) 12 а",
      "link": "https://ozon.ru/point/539203",
      "operationTime": "неизвестно",
      "coordinates": [
        36.778743999999996,
        46.773365000014415
      ]
    },
    {
      "name": "Бердянск, Восточный проспект, 119",
      "address": "Бердянск, Восточный проспект, 119",
      "link": "https://ozon.ru/point/539207",
      "operationTime": "неизвестно",
      "coordinates": [
        36.80322299999999,
        46.75032000001451
      ]
    },
    {
      "name": "Донецк, проспект Мира, 11а",
      "address": "Донецк, проспект Мира, 11а",
      "link": "https://ozon.ru/point/539192",
      "operationTime": "неизвестно",
      "coordinates": [
        37.79973300000002,
        48.016890000010775
      ]
    },
    {
      "name": "Шахтерск Ленинградская 12",
      "address": "Шахтерск Ленинградская 12",
      "link": "https://ozon.ru/point/538185",
      "operationTime": "неизвестно",
      "coordinates": [
        37.79973300000002,
        48.016890000010775
      ]
    },
    {
      "name": "пгт. Тельманово ул. Ленина 251",
      "address": "пгт. Тельманово ул. Ленина 251",
      "link": "https://ozon.ru/point/538178",
      "operationTime": "неизвестно",
      "coordinates": [
        37.79973300000002,
        48.016890000010775
      ]
    },
    {
      "name": "Макеевка, ул. 50 лет образования СССР 24а",
      "address": "Макеевка, ул. 50 лет образования СССР 24а",
      "link": "https://ozon.ru/point/538184",
      "operationTime": "неизвестно",
      "coordinates": [
        37.79973300000002,
        48.016890000010775
      ]
    },
    {
      "name": "Донецк, ул. Постышева 43",
      "address": "Донецк, ул. Постышева 43",
      "link": "https://ozon.ru/point/538183",
      "operationTime": "неизвестно",
      "coordinates": [
        37.79973300000002,
        48.016890000010775
      ]
    },
    {
      "name": "Донецк, ул. Первомайская",
      "address": "Донецк, ул. Первомайская",
      "link": "https://ozon.ru/point/538186",
      "operationTime": "неизвестно",
      "coordinates": [
        37.79973300000002,
        48.016890000010775
      ]
    },
    {
      "name": "Донецк, ул. Ляшенко 1а",
      "address": "Донецк, ул. Ляшенко 1а",
      "link": "https://ozon.ru/point/538097",
      "operationTime": "неизвестно",
      "coordinates": [
        37.79973300000002,
        48.016890000010775
      ]
    },
    {
      "name": "Донецк, ул. Куйбышева 169 Б",
      "address": "Донецк, ул. Куйбышева 169 Б",
      "link": "https://ozon.ru/point/538096",
      "operationTime": "неизвестно",
      "coordinates": [
        37.79973300000002,
        48.016890000010775
      ]
    },
    {
      "name": "Донецк, ул. Кольцова 15",
      "address": "Донецк, ул. Кольцова 15",
      "link": "https://ozon.ru/point/538095",
      "operationTime": "неизвестно",
      "coordinates": [
        37.79973300000002,
        48.016890000010775
      ]
    },
    {
      "name": "Донецк, ул. Буденновских партизан",
      "address": "Донецк, ул. Буденновских партизан",
      "link": "https://ozon.ru/point/538369",
      "operationTime": "неизвестно",
      "coordinates": [
        37.79973300000002,
        48.016890000010775
      ]
    },
    {
      "name": "Донецк, пр. Киевский 24",
      "address": "Донецк, пр. Киевский 24",
      "link": "https://ozon.ru/point/538182",
      "operationTime": "неизвестно",
      "coordinates": [
        37.79973300000002,
        48.016890000010775
      ]
    },
    {
      "name": "Донецк, пр. Ильича 27",
      "address": "Донецк, пр. Ильича 27",
      "link": "https://ozon.ru/point/538179",
      "operationTime": "неизвестно",
      "coordinates": [
        37.83056299999998,
        48.00075300001086
      ]
    },
    {
      "name": "Донецк, пр. Гурова 22",
      "address": "Донецк, пр. Гурова 22",
      "link": "https://ozon.ru/point/538094",
      "operationTime": "неизвестно",
      "coordinates": [
        37.807772999999976,
        48.0043040000108
      ]
    },
    {
      "name": "г. Донецк, бул. Шевченко 66",
      "address": "г. Донецк, бул. Шевченко 66",
      "link": "https://ozon.ru/point/538177",
      "operationTime": "неизвестно",
      "coordinates": [
        37.84923900000002,
        48.00993400001082
      ]
    },
    {
      "name": "г. Донецк, Куприна 3а",
      "address": "г. Донецк, Куприна 3а",
      "link": "https://ozon.ru/point/538181",
      "operationTime": "неизвестно",
      "coordinates": [
        37.80605700000001,
        47.95885300001092
      ]
    },
    {
      "name": "г.Харцызск, ул.Первомайская,1а",
      "address": "г.Харцызск, ул.Первомайская,1а",
      "link": "https://ozon.ru/point/538093",
      "operationTime": "неизвестно",
      "coordinates": [
        38.15059700000001,
        48.042505000010706
      ]
    },
    {
      "name": "г.Харцызск, ул.Вокзальная, 67",
      "address": "г.Харцызск, ул.Вокзальная, 67",
      "link": "https://ozon.ru/point/538092",
      "operationTime": "неизвестно",
      "coordinates": [
        38.144864999999996,
        48.037727000010726
      ]
    },
    {
      "name": "г. Шахтёрск, улица Крупская,1( района автовокзала)",
      "address": "г. Шахтёрск, улица Крупская,1( района автовокзала)",
      "link": "https://ozon.ru/point/538091",
      "operationTime": "неизвестно",
      "coordinates": [
        38.48273999999998,
        48.04320300001071
      ]
    },
    {
      "name": "г. Донецк, пр.Шевченко 129",
      "address": "г. Донецк, пр.Шевченко 129",
      "link": "https://ozon.ru/point/538180",
      "operationTime": "неизвестно",
      "coordinates": [
        37.864259000000025,
        48.009494000010775
      ]
    },
    {
      "name": "Бердянск, ул. Центральная 17",
      "address": "Бердянск, ул. Центральная 17",
      "link": "https://ozon.ru/point/538187",
      "operationTime": "неизвестно",
      "coordinates": [
        36.794257,
        46.755544000014524
      ]
    },
    {
      "name": "Донецк, ул. Университетская 76",
      "address": "Донецк, ул. Университетская 76",
      "link": "https://ozon.ru/point/538086",
      "operationTime": "неизвестно",
      "coordinates": [
        37.795933000000026,
        48.02149500001077
      ]
    },
    {
      "name": "Донецк, бул. Шевченко, 66",
      "address": "Донецк, бул. Шевченко, 66",
      "link": "https://ozon.ru/point/536833",
      "operationTime": "неизвестно",
      "coordinates": [
        37.84923900000003,
        48.00993400001079
      ]
    },
    {
      "name": "Донецк, ул. Пилотная 30",
      "address": "Донецк, ул. Пилотная 30",
      "link": "https://ozon.ru/point/536830",
      "operationTime": "неизвестно",
      "coordinates": [
        37.793470999999975,
        47.97345900001091
      ]
    },
    {
      "name": "Донецк, ул. Речная 24Б",
      "address": "Донецк, ул. Речная 24Б",
      "link": "https://ozon.ru/point/536838",
      "operationTime": "неизвестно",
      "coordinates": [
        37.81032399999997,
        47.953404000010984
      ]
    },
    {
      "name": "Мариуполь, Казанцева 22а",
      "address": "Мариуполь, Казанцева 22а",
      "link": "https://ozon.ru/point/536831",
      "operationTime": "неизвестно",
      "coordinates": [
        37.53925700000002,
        47.096568000013434
      ]
    },
    {
      "name": "Мариуполь, ул. Февральская 44а",
      "address": "Мариуполь, ул. Февральская 44а",
      "link": "https://ozon.ru/point/536835",
      "operationTime": "неизвестно",
      "coordinates": [
        37.67508299999997,
        47.11328200001342
      ]
    },
    {
      "name": "Мариуполь, ул. Киевская 51",
      "address": "Мариуполь, ул. Киевская 51",
      "link": "https://ozon.ru/point/536837",
      "operationTime": "неизвестно",
      "coordinates": [
        37.68774900000001,
        47.12512200001338
      ]
    },
    {
      "name": "Мариуполь, пр. Победы 89",
      "address": "Мариуполь, пр. Победы 89",
      "link": "https://ozon.ru/point/536673",
      "operationTime": "неизвестно",
      "coordinates": [
        37.654260000000015,
        47.106075000013476
      ]
    },
    {
      "name": "Мариуполь, пр. Металлургов 227",
      "address": "Мариуполь, пр. Металлургов 227",
      "link": "https://ozon.ru/point/536828",
      "operationTime": "неизвестно",
      "coordinates": [
        37.56745500000004,
        47.135140000013344
      ]
    },
    {
      "name": "Мариуполь, пр. Металлургов 97",
      "address": "Мариуполь, пр. Металлургов 97",
      "link": "https://ozon.ru/point/536829",
      "operationTime": "неизвестно",
      "coordinates": [
        37.55440299999999,
        47.10710000001347
      ]
    },
    {
      "name": "Енакиево, ул. Ленина 91а",
      "address": "Енакиево, ул. Ленина 91а",
      "link": "https://ozon.ru/point/536668",
      "operationTime": "неизвестно",
      "coordinates": [
        38.20826,
        48.2184470000102
      ]
    },
    {
      "name": "Енакиево, 50 лет Октября 58а",
      "address": "Енакиево, 50 лет Октября 58а",
      "link": "https://ozon.ru/point/536666",
      "operationTime": "неизвестно",
      "coordinates": [
        38.21137699999997,
        48.24881500001009
      ]
    },
    {
      "name": "Горловка, ул. Гагарина 32",
      "address": "Горловка, ул. Гагарина 32",
      "link": "https://ozon.ru/point/536832",
      "operationTime": "неизвестно",
      "coordinates": [
        38.020942999999995,
        48.30557600000995
      ]
    },
    {
      "name": "Горловка, ул. Бессонова 29а",
      "address": "Горловка, ул. Бессонова 29а",
      "link": "https://ozon.ru/point/536827",
      "operationTime": "неизвестно",
      "coordinates": [
        38.05960599999999,
        48.329483000009894
      ]
    },
    {
      "name": "Горловка, ул. 40 лет Украины 9",
      "address": "Горловка, ул. 40 лет Украины 9",
      "link": "https://ozon.ru/point/536836",
      "operationTime": "неизвестно",
      "coordinates": [
        38.14293400000001,
        48.32159300000994
      ]
    },
    {
      "name": "Горловка, проспект Победы 55",
      "address": "Горловка, проспект Победы 55",
      "link": "https://ozon.ru/point/536824",
      "operationTime": "неизвестно",
      "coordinates": [
        38.010271,
        48.303874000009955
      ]
    },
    {
      "name": "г. Харцызск, ул. Шалимова 14Б",
      "address": "г. Харцызск, ул. Шалимова 14Б",
      "link": "https://ozon.ru/point/536623",
      "operationTime": "неизвестно",
      "coordinates": [
        38.15684000000001,
        48.034052000010746
      ]
    },
    {
      "name": "г. Зугрес, ул. Рыночная 1",
      "address": "г. Зугрес, ул. Рыночная 1",
      "link": "https://ozon.ru/point/536839",
      "operationTime": "неизвестно",
      "coordinates": [
        38.266245999999974,
        48.007403000010825
      ]
    },
    {
      "name": "Торез, Пионерская 1",
      "address": "Торез, Пионерская 1",
      "link": "https://ozon.ru/point/536825",
      "operationTime": "неизвестно",
      "coordinates": [
        38.61699300000002,
        48.02685800001075
      ]
    },
    {
      "name": "Донецк, ул. Независимости 16Д",
      "address": "Донецк, ул. Независимости 16Д",
      "link": "https://ozon.ru/point/536826",
      "operationTime": "неизвестно",
      "coordinates": [
        37.91411499999999,
        47.99151600001088
      ]
    },
    {
      "name": "Донецк, ул. Артема 147б",
      "address": "Донецк, ул. Артема 147б",
      "link": "https://ozon.ru/point/536823",
      "operationTime": "неизвестно",
      "coordinates": [
        37.800028999999995,
        48.02230200001077
      ]
    },
    {
      "name": "Донецк, улица Коммунаров, 38",
      "address": "Донецк, улица Коммунаров, 38",
      "link": "https://ozon.ru/point/535056",
      "operationTime": "неизвестно",
      "coordinates": [
        37.70346,
        47.97018900001095
      ]
    },
    {
      "name": "Макеевка, кв. Северный 17",
      "address": "Макеевка, кв. Северный 17",
      "link": "https://ozon.ru/point/534957",
      "operationTime": "неизвестно",
      "coordinates": [
        37.95513199999997,
        48.09835300001054
      ]
    },
    {
      "name": "Донецк, пр - кт Ленинский, остановка ‘ Звездный’",
      "address": "Донецк, пр - кт Ленинский, остановка ‘ Звездный’",
      "link": "https://ozon.ru/point/534953",
      "operationTime": "неизвестно",
      "coordinates": [
        37.77597399999997,
        47.95904900001095
      ]
    },
    {
      "name": "Донецк, бул. Шахтостроителей 20",
      "address": "Донецк, бул. Шахтостроителей 20",
      "link": "https://ozon.ru/point/534949",
      "operationTime": "неизвестно",
      "coordinates": [
        37.85422500000001,
        48.008783000010794
      ]
    },
    {
      "name": "г. Харцызск, м-н Юбилейный 4",
      "address": "г. Харцызск, м-н Юбилейный 4",
      "link": "https://ozon.ru/point/534940",
      "operationTime": "неизвестно",
      "coordinates": [
        38.14011299999998,
        48.05620800001068
      ]
    },
    {
      "name": "г. Харцызск, ул. Октябрьская 84",
      "address": "г. Харцызск, ул. Октябрьская 84",
      "link": "https://ozon.ru/point/535038",
      "operationTime": "неизвестно",
      "coordinates": [
        38.14517099999997,
        48.040740000010715
      ]
    },
    {
      "name": "Снежное, ул. Дзержинского, 2",
      "address": "Снежное, ул. Дзержинского, 2",
      "link": "https://ozon.ru/point/534920",
      "operationTime": "неизвестно",
      "coordinates": [
        38.761523,
        48.02113300001075
      ]
    },
    {
      "name": "Енакиево, пр. Ленина 98В",
      "address": "Енакиево, пр. Ленина 98В",
      "link": "https://ozon.ru/point/534903",
      "operationTime": "неизвестно",
      "coordinates": [
        38.208528999999984,
        48.22156800001021
      ]
    },
    {
      "name": "Макеевка, мкрн Зелёный, 6а",
      "address": "Макеевка, мкрн Зелёный, 6а",
      "link": "https://ozon.ru/point/534902",
      "operationTime": "неизвестно",
      "coordinates": [
        38.02663800000003,
        48.04875700001074
      ]
    },
    {
      "name": "Донецк, ул. Воровского 9",
      "address": "Донецк, ул. Воровского 9",
      "link": "https://ozon.ru/point/534899",
      "operationTime": "неизвестно",
      "coordinates": [
        37.77836199999997,
        47.97851300001093
      ]
    },
    {
      "name": "Чистяково / Торез, 4-й микрорайон, (Торговые павильоны в районе дома 23)",
      "address": "Чистяково / Торез, 4-й микрорайон, (Торговые павильоны в районе дома 23)",
      "link": "https://ozon.ru/point/533350",
      "operationTime": "неизвестно",
      "coordinates": [
        38.63568014484319,
        48.04716934568915
      ]
    },
    {
      "name": "Донецк, Раздольная улица, 6",
      "address": "Донецк, Раздольная улица, 6",
      "link": "https://ozon.ru/point/533348",
      "operationTime": "неизвестно",
      "coordinates": [
        37.920402999999986,
        47.9753410000109
      ]
    },
    {
      "name": "Донецк, ул. Павших Коммунаров 1. ТЦ «Южный»",
      "address": "Донецк, ул. Павших Коммунаров 1. ТЦ «Южный»",
      "link": "https://ozon.ru/point/533347",
      "operationTime": "неизвестно",
      "coordinates": [
        37.79924687235208,
        47.99231654965327
      ]
    },
    {
      "name": "Донецк, Кировский район, улица Островского, 20",
      "address": "Донецк, Кировский район, улица Островского, 20",
      "link": "https://ozon.ru/point/533345",
      "operationTime": "неизвестно",
      "coordinates": [
        37.700396999999974,
        47.945124000011006
      ]
    },
    {
      "name": "Донецк, улица Куйбышева, 217Б",
      "address": "Донецк, улица Куйбышева, 217Б",
      "link": "https://ozon.ru/point/533332",
      "operationTime": "неизвестно",
      "coordinates": [
        37.74796300000003,
        48.034757000010735
      ]
    },
    {
      "name": "Донецк, улица 50-летия СССР, 100",
      "address": "Донецк, улица 50-летия СССР, 100",
      "link": "https://ozon.ru/point/533329",
      "operationTime": "неизвестно",
      "coordinates": [
        37.81151000000003,
        47.99699700001088
      ]
    },
    {
      "name": "Донецк, улица 50-летия СССР, 157А",
      "address": "Донецк, улица 50-летия СССР, 157А",
      "link": "https://ozon.ru/point/533323",
      "operationTime": "неизвестно",
      "coordinates": [
        37.81199499999997,
        48.01176700001082
      ]
    },
    {
      "name": "Донецк, улица 50-летия СССР, 150",
      "address": "Донецк, улица 50-летия СССР, 150",
      "link": "https://ozon.ru/point/533314",
      "operationTime": "неизвестно",
      "coordinates": [
        37.811482999999974,
        48.008554000010804
      ]
    },
    {
      "name": "Донецк, Прожекторная улица, 3",
      "address": "Донецк, Прожекторная улица, 3",
      "link": "https://ozon.ru/point/533308",
      "operationTime": "неизвестно",
      "coordinates": [
        37.907342,
        47.977482000010895
      ]
    },
    {
      "name": "Новоазовск, улица Ленина, 48",
      "address": "Новоазовск, улица Ленина, 48",
      "link": "https://ozon.ru/point/533305",
      "operationTime": "неизвестно",
      "coordinates": [
        38.08463299999999,
        47.118353000013386
      ]
    },
    {
      "name": "Макеевка, улица Ленина, 108",
      "address": "Макеевка, улица Ленина, 108",
      "link": "https://ozon.ru/point/533299",
      "operationTime": "неизвестно",
      "coordinates": [
        37.964385,
        48.063151000010656
      ]
    },
    {
      "name": "Макеевка, улица Ленина, 50А",
      "address": "Макеевка, улица Ленина, 50А",
      "link": "https://ozon.ru/point/524695",
      "operationTime": "неизвестно",
      "coordinates": [
        37.964860999999985,
        48.04270300001071
      ]
    },
    {
      "name": "Донецк, Университетская улица, 26",
      "address": "Донецк, Университетская улица, 26",
      "link": "https://ozon.ru/point/524639",
      "operationTime": "неизвестно",
      "coordinates": [
        37.79856500000001,
        48.00673300001082
      ]
    },
    {
      "name": "г. Мариуполь ул. Урицкого 63",
      "address": "г. Мариуполь ул. Урицкого 63",
      "link": "https://ozon.ru/point/518290",
      "operationTime": "неизвестно",
      "coordinates": [
        37.525568000000014,
        47.12205800001341
      ]
    },
    {
      "name": "г.Мариуполь, пр. Металлургов, 94",
      "address": "г.Мариуполь, пр. Металлургов, 94",
      "link": "https://ozon.ru/point/516734",
      "operationTime": "неизвестно",
      "coordinates": [
        37.55144700000002,
        47.10686700001346
      ]
    },
    {
      "name": "г. Донецк, ул. Университетская, 34",
      "address": "г. Донецк, ул. Университетская, 34",
      "link": "https://ozon.ru/point/514822",
      "operationTime": "неизвестно",
      "coordinates": [
        37.79863699999997,
        48.00900000001082
      ]
    },
    {
      "name": "Донецк, Вышнеградского, 25",
      "address": "Донецк, Вышнеградского, 25",
      "link": "https://ozon.ru/point/517056",
      "operationTime": "неизвестно",
      "coordinates": [
        37.899015000000006,
        47.9900490000109
      ]
    },
    {
      "name": "Донецк, пр-кт Мира, 13",
      "address": "Донецк, пр-кт Мира, 13",
      "link": "https://ozon.ru/point/517059",
      "operationTime": "неизвестно",
      "coordinates": [
        37.80775499999999,
        48.01666100001075
      ]
    },
    {
      "name": "г. Донецк, пр. Ильича, 32",
      "address": "г. Донецк, пр. Ильича, 32",
      "link": "https://ozon.ru/point/514844",
      "operationTime": "неизвестно",
      "coordinates": [
        37.835405,
        48.00247100001081
      ]
    },
    {
      "name": "г. Донецк, ул. Харитонова, 3А",
      "address": "г. Донецк, ул. Харитонова, 3А",
      "link": "https://ozon.ru/point/517058",
      "operationTime": "неизвестно",
      "coordinates": [
        37.84543000000002,
        47.99795600001083
      ]
    },
    {
      "name": "г. Донецк, ул. Артема, 148а",
      "address": "г. Донецк, ул. Артема, 148а",
      "link": "https://ozon.ru/point/517055",
      "operationTime": "неизвестно",
      "coordinates": [
        37.781487999999996,
        48.036510000010736
      ]
    },
    {
      "name": "г. Макеевка, ул.Рябцева, 1",
      "address": "г. Макеевка, ул.Рябцева, 1",
      "link": "https://ozon.ru/point/517062",
      "operationTime": "неизвестно",
      "coordinates": [
        37.960468,
        48.04119700001072
      ]
    },
    {
      "name": "г. Донецк, пр-т. Гурова, 7",
      "address": "г. Донецк, пр-т. Гурова, 7",
      "link": "https://ozon.ru/point/517061",
      "operationTime": "неизвестно",
      "coordinates": [
        37.79639999999996,
        48.00381000001084
      ]
    },
    {
      "name": "г. Донецк, пр-т. Ленинский, 4",
      "address": "г. Донецк, пр-т. Ленинский, 4",
      "link": "https://ozon.ru/point/517054",
      "operationTime": "неизвестно",
      "coordinates": [
        37.79064200000001,
        47.988073000010885
      ]
    },
    {
      "name": "г.Донецк, ул. Петровского, 111в",
      "address": "г.Донецк, ул. Петровского, 111в",
      "link": "https://ozon.ru/point/517053",
      "operationTime": "неизвестно",
      "coordinates": [
        37.69404599999999,
        47.949874000010986
      ]
    }
  ]
}
